[
  {
    "stationName": "agra fort",
    "stationCode": "AF",
    "lat": "27.183265",
    "lng": "78.018656"
  },
  {
    "stationName": "ajmer",
    "stationCode": "AII",
    "lat": "26.456541",
    "lng": "74.637528"
  },
  {
    "stationName": "allahabad",
    "stationCode": "ALD",
    "lat": "25.445910",
    "lng": "81.828732"
  },
  {
    "stationName": "aluva",
    "stationCode": "AWY",
    "lat": "10.108261",
    "lng": "76.356277"
  },
  {
    "stationName": "amritsar",
    "stationCode": "ASR",
    "lat": "31.631350",
    "lng": "74.860343"
  },
  {
    "stationName": "anantapur",
    "stationCode": "ATP",
    "lat": "14.686436",
    "lng": "77.595254"
  },
  {
    "stationName": "ara",
    "stationCode": "ARA",
    "lat": "25.548666",
    "lng": "84.662091"
  },
  {
    "stationName": "aunrihar",
    "stationCode": "ARJ",
    "lat": "25.544842",
    "lng": "83.187182"
  },
  {
    "stationName": "azimganj junction",
    "stationCode": "AZ",
    "lat": "24.229472",
    "lng": "88.259779"
  },
  {
    "stationName": "angar",
    "stationCode": "AAG",
    "lat": "17.928313",
    "lng": "75.608418"
  },
  {
    "stationName": "adesar",
    "stationCode": "AAR",
    "lat": "23.561184",
    "lng": "70.982868"
  },
  {
    "stationName": "abada",
    "stationCode": "ABB",
    "lat": "22.547837",
    "lng": "88.199689"
  },
  {
    "stationName": "ambaturai",
    "stationCode": "ABI",
    "lat": "10.271871",
    "lng": "77.924056"
  },
  {
    "stationName": "akbarpur",
    "stationCode": "ABP",
    "lat": "26.429211",
    "lng": "82.540035"
  },
  {
    "stationName": "acharapakkam",
    "stationCode": "ACK",
    "lat": "12.407082",
    "lng": "79.821766"
  },
  {
    "stationName": "acharya narendra dev nagar",
    "stationCode": "ACND",
    "lat": "26.775355",
    "lng": "82.157692"
  },
  {
    "stationName": "andheri",
    "stationCode": "ADH",
    "lat": "19.116624",
    "lng": "72.846583"
  },
  {
    "stationName": "adavali",
    "stationCode": "ADVI",
    "lat": "16.921857",
    "lng": "73.592808"
  },
  {
    "stationName": "amrelipara",
    "stationCode": "AEP",
    "lat": "21.608091",
    "lng": "71.228301"
  },
  {
    "stationName": "agra city",
    "stationCode": "AGA",
    "lat": "27.194340",
    "lng": "78.015525"
  },
  {
    "stationName": "amguri",
    "stationCode": "AGI",
    "lat": "26.812787",
    "lng": "94.524097"
  },
  {
    "stationName": "agorikhas",
    "stationCode": "AGY",
    "lat": "24.598675",
    "lng": "83.055862"
  },
  {
    "stationName": "ahalyapur",
    "stationCode": "AHLR",
    "lat": "26.468393",
    "lng": "83.824652"
  },
  {
    "stationName": "anjar",
    "stationCode": "AJE",
    "lat": "23.119285",
    "lng": "70.036248"
  },
  {
    "stationName": "ajitwal",
    "stationCode": "AJL",
    "lat": "30.808265",
    "lng": "75.335155"
  },
  {
    "stationName": "ajaibpur",
    "stationCode": "AJR",
    "lat": "28.472549",
    "lng": "77.593543"
  },
  {
    "stationName": "akbarnagar",
    "stationCode": "AKN",
    "lat": "25.235496",
    "lng": "86.834947"
  },
  {
    "stationName": "akurdi",
    "stationCode": "AKRD",
    "lat": "18.648446",
    "lng": "73.764481"
  },
  {
    "stationName": "akividu",
    "stationCode": "AKVD",
    "lat": "16.583049",
    "lng": "81.369336"
  },
  {
    "stationName": "alai",
    "stationCode": "ALAI",
    "lat": "27.337644",
    "lng": "73.585190"
  },
  {
    "stationName": "alamanda",
    "stationCode": "ALM",
    "lat": "18.012087",
    "lng": "83.271241"
  },
  {
    "stationName": "alwal",
    "stationCode": "ALW",
    "lat": "17.505268",
    "lng": "78.514425"
  },
  {
    "stationName": "amin",
    "stationCode": "AMIN",
    "lat": "29.904707",
    "lng": "76.899785"
  },
  {
    "stationName": "amroha",
    "stationCode": "AMRO",
    "lat": "28.892309",
    "lng": "78.474342"
  },
  {
    "stationName": "amanvadi",
    "stationCode": "AMW",
    "lat": "20.366930",
    "lng": "77.074247"
  },
  {
    "stationName": "anas",
    "stationCode": "ANAS",
    "lat": "22.865291",
    "lng": "74.421192"
  },
  {
    "stationName": "ajanti",
    "stationCode": "ANI",
    "lat": "21.894902",
    "lng": "76.286342"
  },
  {
    "stationName": "anjani",
    "stationCode": "ANO",
    "lat": "17.621073",
    "lng": "73.399818"
  },
  {
    "stationName": "anandpur sahib",
    "stationCode": "ANSB",
    "lat": "31.229885",
    "lng": "76.500258"
  },
  {
    "stationName": "ashokapuram",
    "stationCode": "AP",
    "lat": "12.274215",
    "lng": "76.635656"
  },
  {
    "stationName": "aruppukkottai",
    "stationCode": "APK",
    "lat": "9.524682",
    "lng": "78.103420"
  },
  {
    "stationName": "apta",
    "stationCode": "APTA",
    "lat": "18.863539",
    "lng": "73.152990"
  },
  {
    "stationName": "arnetha",
    "stationCode": "ARE",
    "lat": "25.389832",
    "lng": "76.018608"
  },
  {
    "stationName": "atrampur",
    "stationCode": "ARP",
    "lat": "25.572166",
    "lng": "81.745725"
  },
  {
    "stationName": "arvi",
    "stationCode": "ARVI",
    "lat": "20.992795",
    "lng": "78.223298"
  },
  {
    "stationName": "ambasamudram",
    "stationCode": "ASD",
    "lat": "8.707912",
    "lng": "77.438752"
  },
  {
    "stationName": "aslu",
    "stationCode": "ASLU",
    "lat": "28.368491",
    "lng": "75.075029"
  },
  {
    "stationName": "asnoti",
    "stationCode": "AT",
    "lat": "14.876276",
    "lng": "74.147649"
  },
  {
    "stationName": "antah",
    "stationCode": "ATH",
    "lat": "25.160978",
    "lng": "76.307364"
  },
  {
    "stationName": "attar",
    "stationCode": "ATR",
    "lat": "21.999032",
    "lng": "76.205146"
  },
  {
    "stationName": "atul",
    "stationCode": "ATUL",
    "lat": "20.544953",
    "lng": "72.927588"
  },
  {
    "stationName": "anupshahr",
    "stationCode": "AUS",
    "lat": "28.947992",
    "lng": "75.211348"
  },
  {
    "stationName": "alawalpur",
    "stationCode": "AWL",
    "lat": "31.425601",
    "lng": "75.642778"
  },
  {
    "stationName": "ayandur",
    "stationCode": "AYD",
    "lat": "11.967256",
    "lng": "79.341329"
  },
  {
    "stationName": "ayyampet",
    "stationCode": "AZP",
    "lat": "10.896378",
    "lng": "79.206950"
  },
  {
    "stationName": "achalda",
    "stationCode": "ULD",
    "lat": "26.702152",
    "lng": "79.404147"
  },
  {
    "stationName": "ambliyasan",
    "stationCode": "UMN",
    "lat": "23.450058",
    "lng": "72.422210"
  },
  {
    "stationName": "achhnera",
    "stationCode": "AH",
    "lat": "27.182138",
    "lng": "77.757901"
  },
  {
    "stationName": "agra cantt",
    "stationCode": "AGC",
    "lat": "27.158677",
    "lng": "77.989783"
  },
  {
    "stationName": "akola",
    "stationCode": "AK",
    "lat": "20.725291",
    "lng": "77.005892"
  },
  {
    "stationName": "alappuzha",
    "stationCode": "ALLP",
    "lat": "9.483879",
    "lng": "76.322297"
  },
  {
    "stationName": "amalner",
    "stationCode": "AN",
    "lat": "21.049779",
    "lng": "75.057900"
  },
  {
    "stationName": "anakapalle",
    "stationCode": "AKP",
    "lat": "17.695360",
    "lng": "83.008443"
  },
  {
    "stationName": "angul",
    "stationCode": "ANGL",
    "lat": "20.861459",
    "lng": "85.099397"
  },
  {
    "stationName": "arakkonam",
    "stationCode": "AJJ",
    "lat": "13.082195",
    "lng": "79.668750"
  },
  {
    "stationName": "aurangabad",
    "stationCode": "AWB",
    "lat": "19.861826",
    "lng": "75.311079"
  },
  {
    "stationName": "ankaikila",
    "stationCode": "AAK",
    "lat": "20.186813",
    "lng": "74.437809"
  },
  {
    "stationName": "asranada",
    "stationCode": "AAS",
    "lat": "26.397374",
    "lng": "73.305681"
  },
  {
    "stationName": "ambli road",
    "stationCode": "ABD",
    "lat": "23.053889",
    "lng": "72.493047"
  },
  {
    "stationName": "ambika kalna",
    "stationCode": "ABKA",
    "lat": "23.213119",
    "lng": "88.353429"
  },
  {
    "stationName": "abohar",
    "stationCode": "ABS",
    "lat": "30.139430",
    "lng": "74.194640"
  },
  {
    "stationName": "ancheli",
    "stationCode": "ACL",
    "lat": "20.845678",
    "lng": "72.945310"
  },
  {
    "stationName": "adilabad",
    "stationCode": "ADB",
    "lat": "19.681627",
    "lng": "78.536010"
  },
  {
    "stationName": "amreli",
    "stationCode": "AE",
    "lat": "21.608360",
    "lng": "71.228288"
  },
  {
    "stationName": "angamali",
    "stationCode": "AFK",
    "lat": "10.185863",
    "lng": "76.377783"
  },
  {
    "stationName": "agas",
    "stationCode": "AGAS",
    "lat": "22.502110",
    "lng": "72.883962"
  },
  {
    "stationName": "amgaon",
    "stationCode": "AGN",
    "lat": "21.362932",
    "lng": "80.374918"
  },
  {
    "stationName": "amagura",
    "stationCode": "AGZ",
    "lat": "19.068364",
    "lng": "82.147508"
  },
  {
    "stationName": "ahiran",
    "stationCode": "AHN",
    "lat": "24.541580",
    "lng": "88.034120"
  },
  {
    "stationName": "alindra road",
    "stationCode": "AIR",
    "lat": "22.451133",
    "lng": "73.250134"
  },
  {
    "stationName": "ajhai",
    "stationCode": "AJH",
    "lat": "27.604302",
    "lng": "77.585077"
  },
  {
    "stationName": "ajnod",
    "stationCode": "AJN",
    "lat": "22.931678",
    "lng": "75.738537"
  },
  {
    "stationName": "akodia",
    "stationCode": "AKD",
    "lat": "23.378580",
    "lng": "76.599315"
  },
  {
    "stationName": "akalkot road",
    "stationCode": "AKOR",
    "lat": "17.451461",
    "lng": "76.138244"
  },
  {
    "stationName": "akaltara",
    "stationCode": "AKT",
    "lat": "22.029399",
    "lng": "82.422220"
  },
  {
    "stationName": "akividu",
    "stationCode": "AKVD",
    "lat": "16.583049",
    "lng": "81.369336"
  },
  {
    "stationName": "aliabada",
    "stationCode": "ALB",
    "lat": "22.447226",
    "lng": "70.210508"
  },
  {
    "stationName": "alandi",
    "stationCode": "ALN",
    "lat": "18.463348",
    "lng": "74.064800"
  },
  {
    "stationName": "allahabad city",
    "stationCode": "ALY",
    "lat": "25.440058",
    "lng": "81.850115"
  },
  {
    "stationName": "amethi",
    "stationCode": "AME",
    "lat": "26.153127",
    "lng": "81.806170"
  },
  {
    "stationName": "amalsad",
    "stationCode": "AML",
    "lat": "20.812025",
    "lng": "72.955931"
  },
  {
    "stationName": "ahmadpur junction",
    "stationCode": "AMP",
    "lat": "23.833010",
    "lng": "87.693508"
  },
  {
    "stationName": "amausi",
    "stationCode": "AMS",
    "lat": "26.774905",
    "lng": "80.842119"
  },
  {
    "stationName": "amlakhurd",
    "stationCode": "AMX",
    "lat": "21.509995",
    "lng": "76.650578"
  },
  {
    "stationName": "ammanabrolu",
    "stationCode": "ANB",
    "lat": "15.597101",
    "lng": "80.148886"
  },
  {
    "stationName": "ankai",
    "stationCode": "ANK",
    "lat": "20.153921",
    "lng": "74.468075"
  },
  {
    "stationName": "anandtandavpur",
    "stationCode": "ANP",
    "lat": "11.144677",
    "lng": "79.658664"
  },
  {
    "stationName": "antu",
    "stationCode": "ANTU",
    "lat": "26.055221",
    "lng": "81.897880"
  },
  {
    "stationName": "amarpura",
    "stationCode": "APA",
    "lat": "26.115215",
    "lng": "74.258380"
  },
  {
    "stationName": "appikatla",
    "stationCode": "APL",
    "lat": "15.970571",
    "lng": "80.514418"
  },
  {
    "stationName": "ashapura gomat",
    "stationCode": "AQG",
    "lat": "26.950841",
    "lng": "71.893111"
  },
  {
    "stationName": "arigada",
    "stationCode": "ARGD",
    "lat": "23.644249",
    "lng": "85.467814"
  },
  {
    "stationName": "arariya court",
    "stationCode": "ARQ",
    "lat": "26.116294",
    "lng": "87.447381"
  },
  {
    "stationName": "ahraura road",
    "stationCode": "ARW",
    "lat": "25.196457",
    "lng": "83.018807"
  },
  {
    "stationName": "aishbagh junction",
    "stationCode": "ASH",
    "lat": "26.836440",
    "lng": "80.908703"
  },
  {
    "stationName": "asangaon",
    "stationCode": "ASO",
    "lat": "19.439480",
    "lng": "73.307941"
  },
  {
    "stationName": "aata",
    "stationCode": "ATA",
    "lat": "26.044754",
    "lng": "79.599227"
  },
  {
    "stationName": "athmal gola",
    "stationCode": "ATL",
    "lat": "25.453912",
    "lng": "85.590230"
  },
  {
    "stationName": "atru",
    "stationCode": "ATRU",
    "lat": "24.882232",
    "lng": "76.670169"
  },
  {
    "stationName": "aluabari road",
    "stationCode": "AUB",
    "lat": "26.269731",
    "lng": "88.185579"
  },
  {
    "stationName": "auwa",
    "stationCode": "AUWA",
    "lat": "25.660715",
    "lng": "73.561778"
  },
  {
    "stationName": "aravalli",
    "stationCode": "AVLI",
    "lat": "16.620443",
    "lng": "81.598756"
  },
  {
    "stationName": "aghwanpur",
    "stationCode": "AWP",
    "lat": "28.920974",
    "lng": "78.715836"
  },
  {
    "stationName": "adiyakkamungalm",
    "stationCode": "AYM",
    "lat": "10.757657",
    "lng": "79.681066"
  },
  {
    "stationName": "azamnagar road",
    "stationCode": "AZR",
    "lat": "25.555567",
    "lng": "87.852895"
  },
  {
    "stationName": "almatti",
    "stationCode": "LMT",
    "lat": "16.346291",
    "lng": "75.900933"
  },
  {
    "stationName": "annigeri",
    "stationCode": "NGR",
    "lat": "15.432728",
    "lng": "75.431462"
  },
  {
    "stationName": "adavali",
    "stationCode": "ADVI",
    "lat": "16.921857",
    "lng": "73.592808"
  },
  {
    "stationName": "ambala city",
    "stationCode": "UBC",
    "lat": "30.378429",
    "lng": "76.763440"
  },
  {
    "stationName": "andal junction",
    "stationCode": "UDL",
    "lat": "23.579101",
    "lng": "87.181619"
  },
  {
    "stationName": "adoni",
    "stationCode": "AD",
    "lat": "15.617617",
    "lng": "77.274698"
  },
  {
    "stationName": "ahmadnagar",
    "stationCode": "ANG",
    "lat": "19.075333",
    "lng": "74.721689"
  },
  {
    "stationName": "aligarh",
    "stationCode": "ALJN",
    "lat": "27.889642",
    "lng": "78.074072"
  },
  {
    "stationName": "alnawar junction",
    "stationCode": "LWR",
    "lat": "15.424439",
    "lng": "74.737933"
  },
  {
    "stationName": "ambala cantt",
    "stationCode": "UMB",
    "lat": "30.338484",
    "lng": "76.827776"
  },
  {
    "stationName": "anand",
    "stationCode": "ANND",
    "lat": "22.562193",
    "lng": "72.965896"
  },
  {
    "stationName": "annavaram",
    "stationCode": "ANV",
    "lat": "17.269561",
    "lng": "82.419484"
  },
  {
    "stationName": "arsikere",
    "stationCode": "ASK",
    "lat": "13.313638",
    "lng": "76.252965"
  },
  {
    "stationName": "ayodhya",
    "stationCode": "AY",
    "lat": "26.788025",
    "lng": "82.200956"
  },
  {
    "stationName": "amlai",
    "stationCode": "AAL",
    "lat": "23.172858",
    "lng": "81.593104"
  },
  {
    "stationName": "aralvaymozhi",
    "stationCode": "AAY",
    "lat": "8.249326",
    "lng": "77.529460"
  },
  {
    "stationName": "ambarifalakata",
    "stationCode": "ABFC",
    "lat": "26.641398",
    "lng": "88.510362"
  },
  {
    "stationName": "ambikapur",
    "stationCode": "ABKP",
    "lat": "23.136840",
    "lng": "83.143595"
  },
  {
    "stationName": "adgaonbuzurg",
    "stationCode": "ABZ",
    "lat": "21.128332",
    "lng": "76.943151"
  },
  {
    "stationName": "azimganj city",
    "stationCode": "ACLE",
    "lat": "24.239833",
    "lng": "88.254826"
  },
  {
    "stationName": "adas road",
    "stationCode": "ADD",
    "lat": "22.486384",
    "lng": "73.034614"
  },
  {
    "stationName": "aduturai",
    "stationCode": "ADT",
    "lat": "11.008882",
    "lng": "79.478396"
  },
  {
    "stationName": "aulenda",
    "stationCode": "AED",
    "lat": "27.032578",
    "lng": "77.615479"
  },
  {
    "stationName": "asafpur",
    "stationCode": "AFR",
    "lat": "28.405288",
    "lng": "78.905785"
  },
  {
    "stationName": "ambagaon",
    "stationCode": "AGB",
    "lat": "19.062189",
    "lng": "82.239983"
  },
  {
    "stationName": "amargarh",
    "stationCode": "AGR",
    "lat": "23.063319",
    "lng": "74.737511"
  },
  {
    "stationName": "abhaipur",
    "stationCode": "AHA",
    "lat": "25.215764",
    "lng": "86.322905"
  },
  {
    "stationName": "adarshnagar",
    "stationCode": "AHO",
    "lat": "26.411145",
    "lng": "74.653301"
  },
  {
    "stationName": "ait",
    "stationCode": "AIT",
    "lat": "25.902996",
    "lng": "79.229592"
  },
  {
    "stationName": "anjhishahabad",
    "stationCode": "AJI",
    "lat": "27.644647",
    "lng": "79.974095"
  },
  {
    "stationName": "ajni",
    "stationCode": "AJNI",
    "lat": "21.126606",
    "lng": "79.082779"
  },
  {
    "stationName": "akanapet",
    "stationCode": "AKE",
    "lat": "18.111184",
    "lng": "78.397115"
  },
  {
    "stationName": "akot",
    "stationCode": "AKOT",
    "lat": "21.095539",
    "lng": "77.046617"
  },
  {
    "stationName": "angalakuduru",
    "stationCode": "AKU",
    "lat": "16.245408",
    "lng": "80.609296"
  },
  {
    "stationName": "akona",
    "stationCode": "AKW",
    "lat": "25.581921",
    "lng": "80.147117"
  },
  {
    "stationName": "aler",
    "stationCode": "ALER",
    "lat": "17.645686",
    "lng": "79.048664"
  },
  {
    "stationName": "alniya",
    "stationCode": "ALNI",
    "lat": "25.032164",
    "lng": "75.909090"
  },
  {
    "stationName": "ambodala",
    "stationCode": "AMB",
    "lat": "19.836005",
    "lng": "83.456651"
  },
  {
    "stationName": "alamnagar",
    "stationCode": "AMG",
    "lat": "26.841674",
    "lng": "80.868309"
  },
  {
    "stationName": "amli",
    "stationCode": "AMLI",
    "lat": "25.828069",
    "lng": "76.286100"
  },
  {
    "stationName": "ambalapuzha",
    "stationCode": "AMPA",
    "lat": "9.386162",
    "lng": "76.363872"
  },
  {
    "stationName": "ammasandra",
    "stationCode": "AMSA",
    "lat": "13.265053",
    "lng": "76.711751"
  },
  {
    "stationName": "akathumuri",
    "stationCode": "AMY",
    "lat": "8.700359",
    "lng": "76.758746"
  },
  {
    "stationName": "andampaliam",
    "stationCode": "AND",
    "lat": "12.088375",
    "lng": "79.168891"
  },
  {
    "stationName": "ankola",
    "stationCode": "ANKL",
    "lat": "14.643144",
    "lng": "74.334724"
  },
  {
    "stationName": "anpara",
    "stationCode": "ANPR",
    "lat": "24.216780",
    "lng": "82.766028"
  },
  {
    "stationName": "anand vihar",
    "stationCode": "ANVR",
    "lat": "28.648853",
    "lng": "77.315457"
  },
  {
    "stationName": "alipurduar",
    "stationCode": "APD",
    "lat": "26.479051",
    "lng": "89.521005"
  },
  {
    "stationName": "arunachal",
    "stationCode": "ARCL",
    "lat": "24.855729",
    "lng": "92.742936"
  },
  {
    "stationName": "arakku",
    "stationCode": "ARK",
    "lat": "18.333942",
    "lng": "82.862523"
  },
  {
    "stationName": "arariya",
    "stationCode": "ARR",
    "lat": "26.136453",
    "lng": "87.411955"
  },
  {
    "stationName": "arjansar",
    "stationCode": "AS",
    "lat": "28.933815",
    "lng": "73.871922"
  },
  {
    "stationName": "ashoknagar",
    "stationCode": "ASKN",
    "lat": "24.579712",
    "lng": "77.727724"
  },
  {
    "stationName": "asaoti",
    "stationCode": "AST",
    "lat": "28.251493",
    "lng": "77.324376"
  },
  {
    "stationName": "alattambadi",
    "stationCode": "ATB",
    "lat": "10.605294",
    "lng": "79.640144"
  },
  {
    "stationName": "aithal",
    "stationCode": "ATMO",
    "lat": "29.807606",
    "lng": "78.043358"
  },
  {
    "stationName": "attabira",
    "stationCode": "ATS",
    "lat": "21.387287",
    "lng": "83.791201"
  },
  {
    "stationName": "anugrahan road",
    "stationCode": "AUBR",
    "lat": "24.855765",
    "lng": "84.330075"
  },
  {
    "stationName": "avadi",
    "stationCode": "AVD",
    "lat": "13.118066",
    "lng": "80.101165"
  },
  {
    "stationName": "awasani",
    "stationCode": "AWS",
    "lat": "27.162915",
    "lng": "84.052783"
  },
  {
    "stationName": "aiyanapuram",
    "stationCode": "AYN",
    "lat": "10.787730",
    "lng": "78.938637"
  },
  {
    "stationName": "asalpurjobner",
    "stationCode": "JOB",
    "lat": "26.900324",
    "lng": "75.424321"
  },
  {
    "stationName": "adra",
    "stationCode": "ADRA",
    "lat": "23.495592",
    "lng": "86.674285"
  },
  {
    "stationName": "ahmedabad",
    "stationCode": "ADI",
    "lat": "23.025119",
    "lng": "72.601279"
  },
  {
    "stationName": "alipurduar junction",
    "stationCode": "APDJ",
    "lat": "26.485900",
    "lng": "89.541571"
  },
  {
    "stationName": "alwar",
    "stationCode": "AWR",
    "lat": "27.559721",
    "lng": "76.621546"
  },
  {
    "stationName": "amla",
    "stationCode": "AMLA",
    "lat": "21.920235",
    "lng": "78.125403"
  },
  {
    "stationName": "anuppur",
    "stationCode": "APR",
    "lat": "23.117598",
    "lng": "81.696126"
  },
  {
    "stationName": "asansol",
    "stationCode": "ASN",
    "lat": "23.691278",
    "lng": "86.974787"
  },
  {
    "stationName": "azamgarh",
    "stationCode": "AMH",
    "lat": "26.039105",
    "lng": "83.161672"
  },
  {
    "stationName": "angadippuram",
    "stationCode": "AAM",
    "lat": "10.981555",
    "lng": "76.208746"
  },
  {
    "stationName": "ambur",
    "stationCode": "AB",
    "lat": "12.783590",
    "lng": "78.721825"
  },
  {
    "stationName": "ambarnath",
    "stationCode": "ABH",
    "lat": "19.210144",
    "lng": "73.184426"
  },
  {
    "stationName": "ambale",
    "stationCode": "ABLE",
    "lat": "18.414066",
    "lng": "74.186878"
  },
  {
    "stationName": "achalganj",
    "stationCode": "ACH",
    "lat": "26.441921",
    "lng": "80.550926"
  },
  {
    "stationName": "adari road",
    "stationCode": "ADE",
    "lat": "20.987406",
    "lng": "70.330496"
  },
  {
    "stationName": "adhartal",
    "stationCode": "ADTL",
    "lat": "23.227919",
    "lng": "79.972760"
  },
  {
    "stationName": "ateli",
    "stationCode": "AEL",
    "lat": "28.100400",
    "lng": "76.253512"
  },
  {
    "stationName": "agasod",
    "stationCode": "AGD",
    "lat": "24.234149",
    "lng": "78.217236"
  },
  {
    "stationName": "agartala",
    "stationCode": "AGTL",
    "lat": "23.792956",
    "lng": "91.278539"
  },
  {
    "stationName": "ahmadgarh",
    "stationCode": "AHH",
    "lat": "30.683494",
    "lng": "75.829218"
  },
  {
    "stationName": "adipur",
    "stationCode": "AI",
    "lat": "23.076704",
    "lng": "70.078321"
  },
  {
    "stationName": "ajgain",
    "stationCode": "AJ",
    "lat": "26.617536",
    "lng": "80.621225"
  },
  {
    "stationName": "ajit",
    "stationCode": "AJIT",
    "lat": "25.859762",
    "lng": "72.677478"
  },
  {
    "stationName": "ajjampur",
    "stationCode": "AJP",
    "lat": "13.730951",
    "lng": "76.010482"
  },
  {
    "stationName": "akbarganj",
    "stationCode": "AKJ",
    "lat": "26.532025",
    "lng": "81.502107"
  },
  {
    "stationName": "akolner",
    "stationCode": "AKR",
    "lat": "18.985631",
    "lng": "74.669137"
  },
  {
    "stationName": "ankleshwar junction",
    "stationCode": "AKV",
    "lat": "21.624618",
    "lng": "73.001188"
  },
  {
    "stationName": "attili",
    "stationCode": "AL",
    "lat": "16.680061",
    "lng": "81.616350"
  },
  {
    "stationName": "alakkudi",
    "stationCode": "ALK",
    "lat": "10.777515",
    "lng": "79.053162"
  },
  {
    "stationName": "ariyalur",
    "stationCode": "ALU",
    "lat": "11.150643",
    "lng": "79.068576"
  },
  {
    "stationName": "ambikarohina",
    "stationCode": "AMBR",
    "lat": "18.442319",
    "lng": "76.944068"
  },
  {
    "stationName": "amravati",
    "stationCode": "AMI",
    "lat": "20.931763",
    "lng": "77.757791"
  },
  {
    "stationName": "atirampattinam",
    "stationCode": "AMM",
    "lat": "10.331797",
    "lng": "79.384894"
  },
  {
    "stationName": "ammuguda",
    "stationCode": "AMQ",
    "lat": "17.486215",
    "lng": "78.527036"
  },
  {
    "stationName": "ammapet",
    "stationCode": "AMT",
    "lat": "10.780023",
    "lng": "79.310875"
  },
  {
    "stationName": "aslana",
    "stationCode": "ANA",
    "lat": "23.860398",
    "lng": "79.319330"
  },
  {
    "stationName": "ankorahakorha",
    "stationCode": "ANH",
    "lat": "24.761290",
    "lng": "84.169886"
  },
  {
    "stationName": "arangmahanadi",
    "stationCode": "ANMD",
    "lat": "21.189436",
    "lng": "81.955760"
  },
  {
    "stationName": "anara",
    "stationCode": "ANR",
    "lat": "23.480360",
    "lng": "86.559291"
  },
  {
    "stationName": "aonla",
    "stationCode": "AO",
    "lat": "28.295924",
    "lng": "79.169218"
  },
  {
    "stationName": "anupgarh",
    "stationCode": "APH",
    "lat": "29.196960",
    "lng": "73.204573"
  },
  {
    "stationName": "anaparti",
    "stationCode": "APT",
    "lat": "16.935932",
    "lng": "81.953091"
  },
  {
    "stationName": "amarda road",
    "stationCode": "ARD",
    "lat": "21.734068",
    "lng": "87.102235"
  },
  {
    "stationName": "arand",
    "stationCode": "ARN",
    "lat": "21.102343",
    "lng": "82.181867"
  },
  {
    "stationName": "arni road",
    "stationCode": "ARV",
    "lat": "12.631173",
    "lng": "79.209215"
  },
  {
    "stationName": "asifabad road",
    "stationCode": "ASAF",
    "lat": "19.256775",
    "lng": "79.416848"
  },
  {
    "stationName": "aslaoda",
    "stationCode": "ASL",
    "lat": "23.230820",
    "lng": "75.607682"
  },
  {
    "stationName": "asarva junction",
    "stationCode": "ASV",
    "lat": "23.043837",
    "lng": "72.612582"
  },
  {
    "stationName": "atarra",
    "stationCode": "ATE",
    "lat": "25.291090",
    "lng": "80.576882"
  },
  {
    "stationName": "arantangi",
    "stationCode": "ATQ",
    "lat": "10.172275",
    "lng": "79.003763"
  },
  {
    "stationName": "atari",
    "stationCode": "ATT",
    "lat": "31.594335",
    "lng": "74.606813"
  },
  {
    "stationName": "atrauli road",
    "stationCode": "AUR",
    "lat": "28.096238",
    "lng": "78.219413"
  },
  {
    "stationName": "aravankadu",
    "stationCode": "AVK",
    "lat": "11.359543",
    "lng": "76.769668"
  },
  {
    "stationName": "alluru road",
    "stationCode": "AXR",
    "lat": "14.710465",
    "lng": "79.988955"
  },
  {
    "stationName": "aryankavu",
    "stationCode": "AYV",
    "lat": "8.981239",
    "lng": "77.152782"
  },
  {
    "stationName": "achalpur",
    "stationCode": "ELP",
    "lat": "21.277255",
    "lng": "77.518844"
  },
  {
    "stationName": "anand nagar",
    "stationCode": "ANDN",
    "lat": "27.098794",
    "lng": "83.269707"
  },
  {
    "stationName": "bagalkot",
    "stationCode": "BGK",
    "lat": "16.178841",
    "lng": "75.700348"
  },
  {
    "stationName": "balaghat junction",
    "stationCode": "BTC",
    "lat": "21.811604",
    "lng": "80.199839"
  },
  {
    "stationName": "banarhat",
    "stationCode": "BNQ",
    "lat": "26.798523",
    "lng": "89.025729"
  },
  {
    "stationName": "bandra terminus",
    "stationCode": "BDTS",
    "lat": "19.062371",
    "lng": "72.841102"
  },
  {
    "stationName": "bankura",
    "stationCode": "BQK",
    "lat": "23.224448",
    "lng": "87.074685"
  },
  {
    "stationName": "barauni junction",
    "stationCode": "BJU",
    "lat": "25.461971",
    "lng": "85.987476"
  },
  {
    "stationName": "bareilly",
    "stationCode": "BE",
    "lat": "28.337106",
    "lng": "79.410776"
  },
  {
    "stationName": "barmer",
    "stationCode": "BME",
    "lat": "25.744859",
    "lng": "71.397504"
  },
  {
    "stationName": "basti",
    "stationCode": "BST",
    "lat": "26.815549",
    "lng": "82.769975"
  },
  {
    "stationName": "belapur",
    "stationCode": "BAP",
    "lat": "19.019266",
    "lng": "73.039244"
  },
  {
    "stationName": "betul",
    "stationCode": "BZU",
    "lat": "21.897007",
    "lng": "77.906219"
  },
  {
    "stationName": "bharatpur",
    "stationCode": "BTE",
    "lat": "27.236697",
    "lng": "77.488328"
  },
  {
    "stationName": "bhatni",
    "stationCode": "BTT",
    "lat": "26.381471",
    "lng": "83.934406"
  },
  {
    "stationName": "bhimavaram town",
    "stationCode": "BVRT",
    "lat": "16.547519",
    "lng": "81.519014"
  },
  {
    "stationName": "bhopal",
    "stationCode": "BPL",
    "lat": "23.267182",
    "lng": "77.413378"
  },
  {
    "stationName": "bijapur",
    "stationCode": "BJP",
    "lat": "16.830611",
    "lng": "75.739520"
  },
  {
    "stationName": "bina",
    "stationCode": "BINA",
    "lat": "24.171089",
    "lng": "78.183376"
  },
  {
    "stationName": "bobbili",
    "stationCode": "VBL",
    "lat": "18.577562",
    "lng": "83.346671"
  },
  {
    "stationName": "botad",
    "stationCode": "BTD",
    "lat": "22.182974",
    "lng": "71.665694"
  },
  {
    "stationName": "burhwal",
    "stationCode": "BUW",
    "lat": "27.085951",
    "lng": "81.389930"
  },
  {
    "stationName": "bhader",
    "stationCode": "BADR",
    "lat": "21.364897",
    "lng": "70.928745"
  },
  {
    "stationName": "bajana",
    "stationCode": "BAJN",
    "lat": "23.102550",
    "lng": "71.773643"
  },
  {
    "stationName": "bale",
    "stationCode": "BALE",
    "lat": "17.676205",
    "lng": "75.845306"
  },
  {
    "stationName": "birambad",
    "stationCode": "BAMA",
    "lat": "26.923677",
    "lng": "77.322865"
  },
  {
    "stationName": "batala junction",
    "stationCode": "BAT",
    "lat": "31.821592",
    "lng": "75.194483"
  },
  {
    "stationName": "baran",
    "stationCode": "BAZ",
    "lat": "25.095811",
    "lng": "76.506041"
  },
  {
    "stationName": "babarpur",
    "stationCode": "BBDE",
    "lat": "29.449884",
    "lng": "76.966400"
  },
  {
    "stationName": "babugarh",
    "stationCode": "BBO",
    "lat": "28.747202",
    "lng": "77.855702"
  },
  {
    "stationName": "bhabua road",
    "stationCode": "BBU",
    "lat": "25.173068",
    "lng": "83.619398"
  },
  {
    "stationName": "bansdih road",
    "stationCode": "BCD",
    "lat": "25.811289",
    "lng": "84.214978"
  },
  null,
  {
    "stationName": "bichpuri",
    "stationCode": "BCP",
    "lat": "27.176507",
    "lng": "77.914447"
  },
  {
    "stationName": "bodeli",
    "stationCode": "BDE",
    "lat": "22.269797",
    "lng": "73.716581"
  },
  {
    "stationName": "bodhan",
    "stationCode": "BDHN",
    "lat": "18.646141",
    "lng": "77.888353"
  },
  {
    "stationName": "badami",
    "stationCode": "BDM",
    "lat": "15.959225",
    "lng": "75.676939"
  },
  {
    "stationName": "bidanpur",
    "stationCode": "BDNP",
    "lat": "25.583067",
    "lng": "81.446038"
  },
  {
    "stationName": "bandanwara",
    "stationCode": "BDW",
    "lat": "26.125369",
    "lng": "74.691398"
  },
  {
    "stationName": "badearapur",
    "stationCode": "BDXX",
    "lat": "19.011037",
    "lng": "81.838024"
  },
  {
    "stationName": "beldanga",
    "stationCode": "BEB",
    "lat": "23.932191",
    "lng": "88.243388"
  },
  {
    "stationName": "beohari",
    "stationCode": "BEHR",
    "lat": "24.000431",
    "lng": "81.379546"
  },
  {
    "stationName": "bheerpur",
    "stationCode": "BEP",
    "lat": "25.265160",
    "lng": "81.989259"
  },
  {
    "stationName": "bareth",
    "stationCode": "BET",
    "lat": "23.915333",
    "lng": "77.999902"
  },
  {
    "stationName": "bhoras budrukh",
    "stationCode": "BFJ",
    "lat": "20.521272",
    "lng": "75.013065"
  },
  {
    "stationName": "bhongir",
    "stationCode": "BG",
    "lat": "17.524667",
    "lng": "78.899011"
  },
  {
    "stationName": "banta raghunathgarh",
    "stationCode": "BGG",
    "lat": "25.602347",
    "lng": "73.527544"
  },
  {
    "stationName": "bagumra",
    "stationCode": "BGMR",
    "lat": "21.148899",
    "lng": "72.997632"
  },
  {
    "stationName": "baghnapara",
    "stationCode": "BGRA",
    "lat": "23.241602",
    "lng": "88.329366"
  },
  {
    "stationName": "bhagtanwala",
    "stationCode": "BGTN",
    "lat": "31.608940",
    "lng": "74.864486"
  },
  {
    "stationName": "bagewadi",
    "stationCode": "BGWD",
    "lat": "16.307351",
    "lng": "74.753281"
  },
  {
    "stationName": "bhestan",
    "stationCode": "BHET",
    "lat": "21.127879",
    "lng": "72.861391"
  },
  {
    "stationName": "bhurkunda",
    "stationCode": "BHKD",
    "lat": "23.637074",
    "lng": "85.371676"
  },
  {
    "stationName": "bhandaridah",
    "stationCode": "BHME",
    "lat": "23.755771",
    "lng": "86.066867"
  },
  {
    "stationName": "bhatiya",
    "stationCode": "BHTA",
    "lat": "22.088622",
    "lng": "69.280868"
  },
  {
    "stationName": "bhatpar rani",
    "stationCode": "BHTR",
    "lat": "26.309804",
    "lng": "84.032443"
  },
  {
    "stationName": "barharwa junction",
    "stationCode": "BHW",
    "lat": "24.857858",
    "lng": "87.774612"
  },
  {
    "stationName": "bhilai",
    "stationCode": "BIA",
    "lat": "21.202317",
    "lng": "81.421391"
  },
  {
    "stationName": "belgahna",
    "stationCode": "BIG",
    "lat": "22.430943",
    "lng": "82.032024"
  },
  {
    "stationName": "bildi",
    "stationCode": "BILD",
    "lat": "23.225089",
    "lng": "74.918151"
  },
  {
    "stationName": "bordi",
    "stationCode": "BIO",
    "lat": "22.866626",
    "lng": "74.347126"
  },
  {
    "stationName": "bir",
    "stationCode": "BIR",
    "lat": "22.052531",
    "lng": "76.547495"
  },
  {
    "stationName": "bisalwaskalan",
    "stationCode": "BIWK",
    "lat": "24.500280",
    "lng": "74.783301"
  },
  {
    "stationName": "barejadi",
    "stationCode": "BJD",
    "lat": "22.894886",
    "lng": "72.677380"
  },
  {
    "stationName": "bijora",
    "stationCode": "BJK",
    "lat": "25.144906",
    "lng": "76.395491"
  },
  {
    "stationName": "bijuri",
    "stationCode": "BJRI",
    "lat": "23.250553",
    "lng": "82.119186"
  },
  {
    "stationName": "bhikamkor",
    "stationCode": "BKC",
    "lat": "26.805916",
    "lng": "72.788044"
  },
  {
    "stationName": "barkur",
    "stationCode": "BKJ",
    "lat": "13.477527",
    "lng": "74.759706"
  },
  {
    "stationName": "bindki road",
    "stationCode": "BKO",
    "lat": "26.116872",
    "lng": "80.580832"
  },
  {
    "stationName": "bhiknur",
    "stationCode": "BKU",
    "lat": "18.163907",
    "lng": "78.398457"
  },
  {
    "stationName": "bhildi",
    "stationCode": "BLDI",
    "lat": "24.194677",
    "lng": "72.008695"
  },
  {
    "stationName": "balurghat",
    "stationCode": "BLGT",
    "lat": "25.233235",
    "lng": "88.757835"
  },
  {
    "stationName": "balamu junction",
    "stationCode": "BLM",
    "lat": "27.167421",
    "lng": "80.352479"
  },
  {
    "stationName": "bhalwani",
    "stationCode": "BLNI",
    "lat": "18.210559",
    "lng": "75.207111"
  },
  {
    "stationName": "badulipar",
    "stationCode": "BLPR",
    "lat": "26.647401",
    "lng": "93.874599"
  },
  {
    "stationName": "bolsa",
    "stationCode": "BLSA",
    "lat": "19.001669",
    "lng": "77.703550"
  },
  {
    "stationName": "belthara road",
    "stationCode": "BLTR",
    "lat": "26.121111",
    "lng": "83.841496"
  },
  {
    "stationName": "bolai",
    "stationCode": "BLX",
    "lat": "23.361567",
    "lng": "76.486971"
  },
  {
    "stationName": "bhimalgondi",
    "stationCode": "BMC",
    "lat": "21.725118",
    "lng": "78.910240"
  },
  {
    "stationName": "bhimgara",
    "stationCode": "BMGA",
    "lat": "23.738349",
    "lng": "87.284626"
  },
  {
    "stationName": "bamnia",
    "stationCode": "BMI",
    "lat": "23.096056",
    "lng": "74.758775"
  },
  {
    "stationName": "bhimana",
    "stationCode": "BMN",
    "lat": "24.595924",
    "lng": "72.886734"
  },
  {
    "stationName": "bhimarlai",
    "stationCode": "BMQ",
    "lat": "25.893261",
    "lng": "71.882277"
  },
  {
    "stationName": "begampet",
    "stationCode": "BMT",
    "lat": "17.438587",
    "lng": "78.458111"
  },
  {
    "stationName": "binaur",
    "stationCode": "BNAR",
    "lat": "26.401019",
    "lng": "80.175205"
  },
  {
    "stationName": "barnagar",
    "stationCode": "BNG",
    "lat": "23.060772",
    "lng": "75.376832"
  },
  {
    "stationName": "budni",
    "stationCode": "BNI",
    "lat": "22.786494",
    "lng": "77.681137"
  },
  {
    "stationName": "barnala",
    "stationCode": "BNN",
    "lat": "30.370792",
    "lng": "75.549683"
  },
  {
    "stationName": "bhagwanpur",
    "stationCode": "BNR",
    "lat": "25.859098",
    "lng": "85.301508"
  },
  {
    "stationName": "bantawala",
    "stationCode": "BNTL",
    "lat": "12.877686",
    "lng": "75.034131"
  },
  {
    "stationName": "bhiwani city",
    "stationCode": "BNWC",
    "lat": "28.825315",
    "lng": "76.144008"
  },
  {
    "stationName": "bangrod",
    "stationCode": "BOD",
    "lat": "23.398083",
    "lng": "75.123626"
  },
  {
    "stationName": "bhoke",
    "stationCode": "BOKE",
    "lat": "17.049035",
    "lng": "73.381016"
  },
  {
    "stationName": "baghdogra",
    "stationCode": "BORA",
    "lat": "26.698091",
    "lng": "88.324348"
  },
  {
    "stationName": "bolarumbazar",
    "stationCode": "BOZ",
    "lat": "17.517613",
    "lng": "78.515687"
  },
  {
    "stationName": "bahadurpur",
    "stationCode": "BPD",
    "lat": "23.439088",
    "lng": "88.463812"
  },
  {
    "stationName": "bhugaon",
    "stationCode": "BPK",
    "lat": "20.673750",
    "lng": "78.669839"
  },
  {
    "stationName": "bhogpursirwal",
    "stationCode": "BPRS",
    "lat": "31.556373",
    "lng": "75.644967"
  },
  {
    "stationName": "barelipur",
    "stationCode": "BQM",
    "lat": "22.052120",
    "lng": "78.408621"
  },
  {
    "stationName": "bhilainagar",
    "stationCode": "BQR",
    "lat": "21.200917",
    "lng": "81.333932"
  },
  {
    "stationName": "barang",
    "stationCode": "BRAG",
    "lat": "20.401061",
    "lng": "85.832807"
  },
  {
    "stationName": "bharwari",
    "stationCode": "BRE",
    "lat": "25.559129",
    "lng": "81.491795"
  },
  {
    "stationName": "bargawan",
    "stationCode": "BRGW",
    "lat": "24.196977",
    "lng": "82.456446"
  },
  {
    "stationName": "braylachaurasi",
    "stationCode": "BRLA",
    "lat": "23.555284",
    "lng": "75.092559"
  },
  {
    "stationName": "bermo",
    "stationCode": "BRMO",
    "lat": "23.772763",
    "lng": "85.956202"
  },
  {
    "stationName": "boridand",
    "stationCode": "BRND",
    "lat": "23.267616",
    "lng": "82.178087"
  },
  {
    "stationName": "biyavrarajgarh",
    "stationCode": "BRRG",
    "lat": "23.936418",
    "lng": "76.907503"
  },
  {
    "stationName": "borvihir",
    "stationCode": "BRVR",
    "lat": "20.784102",
    "lng": "74.841226"
  },
  {
    "stationName": "banshbaria",
    "stationCode": "BSAE",
    "lat": "22.957480",
    "lng": "88.395362"
  },
  {
    "stationName": "bhupalsagar",
    "stationCode": "BSJ",
    "lat": "24.847403",
    "lng": "74.211337"
  },
  {
    "stationName": "bansipur",
    "stationCode": "BSQP",
    "lat": "25.151102",
    "lng": "86.130676"
  },
  {
    "stationName": "basar",
    "stationCode": "BSX",
    "lat": "18.865689",
    "lng": "77.938932"
  },
  {
    "stationName": "bihta",
    "stationCode": "BTA",
    "lat": "25.561336",
    "lng": "84.875540"
  },
  {
    "stationName": "bharatkund",
    "stationCode": "BTKD",
    "lat": "26.635673",
    "lng": "82.126981"
  },
  {
    "stationName": "bhitaura",
    "stationCode": "BTO",
    "lat": "28.470115",
    "lng": "79.306471"
  },
  {
    "stationName": "butari",
    "stationCode": "BTR",
    "lat": "31.556094",
    "lng": "75.183218"
  },
  {
    "stationName": "barsi town",
    "stationCode": "BTW",
    "lat": "18.240988",
    "lng": "75.718083"
  },
  {
    "stationName": "baradwar",
    "stationCode": "BUA",
    "lat": "22.011814",
    "lng": "82.813674"
  },
  {
    "stationName": "bundi",
    "stationCode": "BUDI",
    "lat": "25.408503",
    "lng": "75.651265"
  },
  {
    "stationName": "bommasamudram",
    "stationCode": "BUM",
    "lat": "13.044759",
    "lng": "79.176468"
  },
  {
    "stationName": "burnpur",
    "stationCode": "BURN",
    "lat": "23.672448",
    "lng": "86.939105"
  },
  {
    "stationName": "babhnan",
    "stationCode": "BV",
    "lat": "26.938532",
    "lng": "82.500060"
  },
  {
    "stationName": "bikkavolu",
    "stationCode": "BVL",
    "lat": "16.969257",
    "lng": "82.031703"
  },
  {
    "stationName": "bhavanagarpara",
    "stationCode": "BVP",
    "lat": "21.770590",
    "lng": "72.118462"
  },
  {
    "stationName": "balipara",
    "stationCode": "BVU",
    "lat": "26.819523",
    "lng": "92.771595"
  },
  {
    "stationName": "banwali",
    "stationCode": "BWC",
    "lat": "29.920814",
    "lng": "74.025755"
  },
  {
    "stationName": "bilwai",
    "stationCode": "BWI",
    "lat": "26.159155",
    "lng": "82.664992"
  },
  {
    "stationName": "bhawanipur kalan",
    "stationCode": "BWP",
    "lat": "27.350099",
    "lng": "82.082568"
  },
  {
    "stationName": "barwaha",
    "stationCode": "BWW",
    "lat": "22.256273",
    "lng": "76.030953"
  },
  {
    "stationName": "bokajan",
    "stationCode": "BXJ",
    "lat": "26.019168",
    "lng": "93.779885"
  },
  {
    "stationName": "brundamal",
    "stationCode": "BXQ",
    "lat": "21.806614",
    "lng": "84.016097"
  },
  {
    "stationName": "byadgi",
    "stationCode": "BYD",
    "lat": "14.699190",
    "lng": "75.489655"
  },
  {
    "stationName": "byndoor",
    "stationCode": "BYNR",
    "lat": "13.872570",
    "lng": "74.632507"
  },
  {
    "stationName": "byree",
    "stationCode": "BYY",
    "lat": "20.628376",
    "lng": "86.035157"
  },
  {
    "stationName": "bhimsen",
    "stationCode": "BZM",
    "lat": "26.419468",
    "lng": "80.217585"
  },
  {
    "stationName": "basai",
    "stationCode": "BZY",
    "lat": "25.142662",
    "lng": "78.393990"
  },
  {
    "stationName": "bhaga junction",
    "stationCode": "VAA",
    "lat": "23.723455",
    "lng": "86.405874"
  },
  {
    "stationName": "bavla",
    "stationCode": "VLA",
    "lat": "22.833544",
    "lng": "72.364850"
  },
  {
    "stationName": "badarpur",
    "stationCode": "BPB",
    "lat": "24.867748",
    "lng": "92.559271"
  },
  {
    "stationName": "baghpat road",
    "stationCode": "BPM",
    "lat": "28.960389",
    "lng": "77.272282"
  },
  {
    "stationName": "balasore",
    "stationCode": "BLS",
    "lat": "21.502109",
    "lng": "86.920381"
  },
  {
    "stationName": "banda junction",
    "stationCode": "BNDA",
    "lat": "25.477818",
    "lng": "80.334839"
  },
  {
    "stationName": "bangalore city",
    "stationCode": "SBC",
    "lat": "12.978129",
    "lng": "77.568619"
  },
  {
    "stationName": "banmankhi",
    "stationCode": "BNKI",
    "lat": "25.885056",
    "lng": "87.193526"
  },
  {
    "stationName": "baraut",
    "stationCode": "BTU",
    "lat": "29.097352",
    "lng": "77.273061"
  },
  {
    "stationName": "bargarh road",
    "stationCode": "BRGA",
    "lat": "21.347064",
    "lng": "83.632386"
  },
  {
    "stationName": "barog",
    "stationCode": "BOF",
    "lat": "30.908116",
    "lng": "77.081223"
  },
  {
    "stationName": "bathinda junction",
    "stationCode": "BTI",
    "lat": "30.210384",
    "lng": "74.932930"
  },
  {
    "stationName": "belgaum",
    "stationCode": "BGM",
    "lat": "15.849976",
    "lng": "74.508834"
  },
  {
    "stationName": "bhadohi",
    "stationCode": "BOY",
    "lat": "25.395676",
    "lng": "82.558472"
  },
  {
    "stationName": "bharuch",
    "stationCode": "BH",
    "lat": "21.710227",
    "lng": "72.998285"
  },
  {
    "stationName": "bhavnagar",
    "stationCode": "BVC",
    "lat": "21.782197",
    "lng": "72.141248"
  },
  {
    "stationName": "bhind",
    "stationCode": "BIX",
    "lat": "26.591904",
    "lng": "78.777409"
  },
  {
    "stationName": "bhubaneswar",
    "stationCode": "BBS",
    "lat": "20.272503",
    "lng": "85.843620"
  },
  {
    "stationName": "bijnor",
    "stationCode": "BJO",
    "lat": "29.386662",
    "lng": "78.147376"
  },
  {
    "stationName": "binnaguri",
    "stationCode": "BNV",
    "lat": "26.748140",
    "lng": "89.052758"
  },
  {
    "stationName": "bokaro steel city",
    "stationCode": "BKSC",
    "lat": "23.785698",
    "lng": "85.875785"
  },
  {
    "stationName": "brahmapuri",
    "stationCode": "BMP",
    "lat": "19.329287",
    "lng": "84.797516"
  },
  {
    "stationName": "buxar",
    "stationCode": "BXR",
    "lat": "25.561568",
    "lng": "83.981549"
  },
  {
    "stationName": "balia kheri",
    "stationCode": "BAE",
    "lat": "29.929275",
    "lng": "77.633586"
  },
  {
    "stationName": "banka",
    "stationCode": "BAKA",
    "lat": "24.867515",
    "lng": "86.912913"
  },
  {
    "stationName": "baitalpur",
    "stationCode": "BALR",
    "lat": "26.555365",
    "lng": "83.738422"
  },
  {
    "stationName": "bani",
    "stationCode": "BANI",
    "lat": "26.233340",
    "lng": "81.610944"
  },
  {
    "stationName": "bar",
    "stationCode": "BAR",
    "lat": "26.061101",
    "lng": "74.128847"
  },
  {
    "stationName": "bibinagar",
    "stationCode": "BB",
    "lat": "17.471070",
    "lng": "78.794582"
  },
  {
    "stationName": "barua bamungaon",
    "stationCode": "BBGN",
    "lat": "26.669282",
    "lng": "93.983442"
  },
  {
    "stationName": "balabhadrapuram",
    "stationCode": "BBPM",
    "lat": "16.966379",
    "lng": "82.000530"
  },
  {
    "stationName": "bodarwar",
    "stationCode": "BBW",
    "lat": "26.886555",
    "lng": "83.640060"
  },
  {
    "stationName": "berchha",
    "stationCode": "BCH",
    "lat": "23.283099",
    "lng": "76.334592"
  },
  {
    "stationName": "bachhrawan",
    "stationCode": "BCN",
    "lat": "26.489011",
    "lng": "81.106338"
  },
  {
    "stationName": "barachak",
    "stationCode": "BCQ",
    "lat": "23.707174",
    "lng": "86.928567"
  },
  {
    "stationName": "bhedia",
    "stationCode": "BDH",
    "lat": "23.586761",
    "lng": "87.712004"
  },
  {
    "stationName": "budhi",
    "stationCode": "BDHY",
    "lat": "32.441118",
    "lng": "75.433574"
  },
  {
    "stationName": "bhodwal majri",
    "stationCode": "BDMJ",
    "lat": "29.185512",
    "lng": "77.008127"
  },
  {
    "stationName": "byadarahalli",
    "stationCode": "BDRL",
    "lat": "12.501862",
    "lng": "76.751933"
  },
  {
    "stationName": "badhwabara",
    "stationCode": "BDWA",
    "lat": "23.294412",
    "lng": "81.286883"
  },
  {
    "stationName": "buddireddippati",
    "stationCode": "BDY",
    "lat": "12.045532",
    "lng": "78.312839"
  },
  {
    "stationName": "bhupdeopur",
    "stationCode": "BEF",
    "lat": "21.975146",
    "lng": "83.260378"
  },
  {
    "stationName": "bihar sharif",
    "stationCode": "BEHS",
    "lat": "25.203155",
    "lng": "85.539418"
  },
  {
    "stationName": "belur",
    "stationCode": "BEQ",
    "lat": "22.635996",
    "lng": "88.339816"
  },
  {
    "stationName": "bhalui",
    "stationCode": "BFM",
    "lat": "25.102933",
    "lng": "86.157095"
  },
  {
    "stationName": "bagalia",
    "stationCode": "BGA",
    "lat": "23.447479",
    "lng": "86.518897"
  },
  {
    "stationName": "baghauli",
    "stationCode": "BGH",
    "lat": "27.321774",
    "lng": "80.196050"
  },
  {
    "stationName": "borgaon",
    "stationCode": "BGN",
    "lat": "20.727378",
    "lng": "77.136698"
  },
  {
    "stationName": "begusarai",
    "stationCode": "BGS",
    "lat": "25.425447",
    "lng": "86.133828"
  },
  {
    "stationName": "bairagnia",
    "stationCode": "BGU",
    "lat": "26.737524",
    "lng": "85.276043"
  },
  {
    "stationName": "bagrisajjanpur",
    "stationCode": "BGX",
    "lat": "25.903549",
    "lng": "73.801160"
  },
  {
    "stationName": "bhatton ki gali",
    "stationCode": "BHG",
    "lat": "27.105360",
    "lng": "75.712695"
  },
  {
    "stationName": "behula",
    "stationCode": "BHLA",
    "lat": "23.180941",
    "lng": "88.428973"
  },
  {
    "stationName": "bhone",
    "stationCode": "BHNE",
    "lat": "21.020098",
    "lng": "75.211959"
  },
  {
    "stationName": "bhanwartonk",
    "stationCode": "BHTK",
    "lat": "22.608474",
    "lng": "81.898322"
  },
  {
    "stationName": "bhandu motidau",
    "stationCode": "BHU",
    "lat": "23.699825",
    "lng": "72.391183"
  },
  {
    "stationName": "bechhiwara",
    "stationCode": "BHWA",
    "lat": "23.787780",
    "lng": "73.535264"
  },
  {
    "stationName": "bichia",
    "stationCode": "BIC",
    "lat": "28.306440",
    "lng": "81.154007"
  },
  {
    "stationName": "bairagarh",
    "stationCode": "BIH",
    "lat": "23.274288",
    "lng": "77.336687"
  },
  {
    "stationName": "bilkha",
    "stationCode": "BILK",
    "lat": "21.443462",
    "lng": "70.600566"
  },
  {
    "stationName": "bahilpurwa",
    "stationCode": "BIP",
    "lat": "25.211154",
    "lng": "80.972192"
  },
  {
    "stationName": "bhiwandi road",
    "stationCode": "BIRD",
    "lat": "19.269382",
    "lng": "73.045882"
  },
  {
    "stationName": "bardoli",
    "stationCode": "BIY",
    "lat": "21.135425",
    "lng": "73.105230"
  },
  {
    "stationName": "bhojudih junction",
    "stationCode": "BJE",
    "lat": "23.642598",
    "lng": "86.446860"
  },
  {
    "stationName": "bhagavathipuram",
    "stationCode": "BJM",
    "lat": "9.018481",
    "lng": "77.193950"
  },
  {
    "stationName": "bijainagar",
    "stationCode": "BJNR",
    "lat": "25.930896",
    "lng": "74.652697"
  },
  {
    "stationName": "bajva",
    "stationCode": "BJW",
    "lat": "22.367023",
    "lng": "73.143575"
  },
  {
    "stationName": "bhankoda",
    "stationCode": "BKD",
    "lat": "23.270326",
    "lng": "72.128413"
  },
  {
    "stationName": "bona kalu",
    "stationCode": "BKL",
    "lat": "17.032495",
    "lng": "80.261722"
  },
  {
    "stationName": "bhaluka road",
    "stationCode": "BKRD",
    "lat": "25.343173",
    "lng": "87.912154"
  },
  {
    "stationName": "barlai",
    "stationCode": "BLAX",
    "lat": "22.894125",
    "lng": "75.961787"
  },
  {
    "stationName": "balaudatakun",
    "stationCode": "BLDK",
    "lat": "22.875226",
    "lng": "75.756469"
  },
  {
    "stationName": "belakoba",
    "stationCode": "BLK",
    "lat": "26.590197",
    "lng": "88.589541"
  },
  {
    "stationName": "bhalumaska",
    "stationCode": "BLMK",
    "lat": "19.328072",
    "lng": "83.293827"
  },
  {
    "stationName": "bhulon",
    "stationCode": "BLO",
    "lat": "24.635139",
    "lng": "76.970683"
  },
  {
    "stationName": "bilpur",
    "stationCode": "BLPU",
    "lat": "28.083264",
    "lng": "79.625337"
  },
  {
    "stationName": "balsamand",
    "stationCode": "BLSD",
    "lat": "27.582014",
    "lng": "74.472620"
  },
  {
    "stationName": "bilhaur",
    "stationCode": "BLU",
    "lat": "26.839676",
    "lng": "80.060803"
  },
  {
    "stationName": "bally",
    "stationCode": "BLY",
    "lat": "22.655383",
    "lng": "88.340567"
  },
  {
    "stationName": "bissamcuttack",
    "stationCode": "BMCK",
    "lat": "19.487469",
    "lng": "83.459162"
  },
  {
    "stationName": "brahmanagudem",
    "stationCode": "BMGM",
    "lat": "16.934872",
    "lng": "81.675063"
  },
  {
    "stationName": "birangkhera",
    "stationCode": "BMK",
    "lat": "29.916852",
    "lng": "74.632008"
  },
  {
    "stationName": "bolarum",
    "stationCode": "BMO",
    "lat": "17.533363",
    "lng": "78.515203"
  },
  {
    "stationName": "bikrampur",
    "stationCode": "BMR",
    "lat": "23.091417",
    "lng": "79.596498"
  },
  {
    "stationName": "bamhrauli",
    "stationCode": "BMU",
    "lat": "25.445290",
    "lng": "81.739347"
  },
  {
    "stationName": "bangalore east",
    "stationCode": "BNCE",
    "lat": "13.001463",
    "lng": "77.618276"
  },
  {
    "stationName": "bongaigaon",
    "stationCode": "BNGN",
    "lat": "26.479101",
    "lng": "90.561025"
  },
  {
    "stationName": "bevinahalu",
    "stationCode": "BNL",
    "lat": "15.166956",
    "lng": "77.213005"
  },
  {
    "stationName": "banar",
    "stationCode": "BNO",
    "lat": "26.339711",
    "lng": "73.147012"
  },
  {
    "stationName": "banas",
    "stationCode": "BNS",
    "lat": "24.713738",
    "lng": "72.989084"
  },
  {
    "stationName": "bandakpur",
    "stationCode": "BNU",
    "lat": "23.848397",
    "lng": "79.575258"
  },
  {
    "stationName": "bidhannagar road",
    "stationCode": "BNXR",
    "lat": "22.591131",
    "lng": "88.390737"
  },
  {
    "stationName": "bhairongarh",
    "stationCode": "BOG",
    "lat": "23.145391",
    "lng": "74.776872"
  },
  {
    "stationName": "bhonra",
    "stationCode": "BON",
    "lat": "25.183195",
    "lng": "76.149881"
  },
  {
    "stationName": "baorithikria",
    "stationCode": "BOTI",
    "lat": "27.414710",
    "lng": "75.511386"
  },
  {
    "stationName": "barrackpore",
    "stationCode": "BP",
    "lat": "22.760947",
    "lng": "88.371145"
  },
  {
    "stationName": "banapura",
    "stationCode": "BPF",
    "lat": "22.457598",
    "lng": "77.462000"
  },
  {
    "stationName": "bhopalka",
    "stationCode": "BPKA",
    "lat": "22.123492",
    "lng": "69.369550"
  },
  {
    "stationName": "banpas",
    "stationCode": "BPS",
    "lat": "23.401268",
    "lng": "87.747445"
  },
  {
    "stationName": "bankura",
    "stationCode": "BQK",
    "lat": "23.224448",
    "lng": "87.074685"
  },
  {
    "stationName": "bagrinagar",
    "stationCode": "BQN",
    "lat": "25.895944",
    "lng": "73.787695"
  },
  {
    "stationName": "bhattiprolu",
    "stationCode": "BQU",
    "lat": "16.105587",
    "lng": "80.788316"
  },
  {
    "stationName": "boribial",
    "stationCode": "BRB",
    "lat": "18.408161",
    "lng": "74.649028"
  },
  {
    "stationName": "bargarh",
    "stationCode": "BRG",
    "lat": "21.333713",
    "lng": "83.643333"
  },
  {
    "stationName": "baikunthpur road",
    "stationCode": "BRH",
    "lat": "23.318297",
    "lng": "82.529268"
  },
  {
    "stationName": "biroliya",
    "stationCode": "BRLY",
    "lat": "25.174107",
    "lng": "73.195074"
  },
  {
    "stationName": "birmitrapur",
    "stationCode": "BRMP",
    "lat": "22.397499",
    "lng": "84.737138"
  },
  {
    "stationName": "barpali",
    "stationCode": "BRPL",
    "lat": "21.184412",
    "lng": "83.595353"
  },
  {
    "stationName": "birsinghpur",
    "stationCode": "BRS",
    "lat": "23.367235",
    "lng": "81.043221"
  },
  {
    "stationName": "bareilly",
    "stationCode": "BE",
    "lat": "28.337106",
    "lng": "79.410776"
  },
  {
    "stationName": "banshlaibridge",
    "stationCode": "BSBR",
    "lat": "24.485821",
    "lng": "87.860234"
  },
  {
    "stationName": "bhusandpur",
    "stationCode": "BSDP",
    "lat": "19.952192",
    "lng": "85.476741"
  },
  {
    "stationName": "basikiratpur",
    "stationCode": "BSKR",
    "lat": "29.497230",
    "lng": "78.213125"
  },
  {
    "stationName": "bassipathanam",
    "stationCode": "BSPN",
    "lat": "30.689021",
    "lng": "76.409930"
  },
  {
    "stationName": "besroli",
    "stationCode": "BSRL",
    "lat": "26.991154",
    "lng": "74.561191"
  },
  {
    "stationName": "barsathi",
    "stationCode": "BSY",
    "lat": "25.565749",
    "lng": "82.473761"
  },
  {
    "stationName": "basharatganj",
    "stationCode": "BTG",
    "lat": "28.287868",
    "lng": "79.285018"
  },
  {
    "stationName": "bhatkal",
    "stationCode": "BTKL",
    "lat": "13.989313",
    "lng": "74.566008"
  },
  {
    "stationName": "babatpur",
    "stationCode": "BTP",
    "lat": "25.454977",
    "lng": "82.880330"
  },
  {
    "stationName": "banthra",
    "stationCode": "BTRA",
    "lat": "27.929033",
    "lng": "79.828008"
  },
  {
    "stationName": "bissau",
    "stationCode": "BUB",
    "lat": "28.240468",
    "lng": "75.061380"
  },
  {
    "stationName": "badmal",
    "stationCode": "BUDM",
    "lat": "20.385443",
    "lng": "83.270999"
  },
  {
    "stationName": "bariarpur",
    "stationCode": "BUP",
    "lat": "25.283041",
    "lng": "86.574469"
  },
  {
    "stationName": "badausa",
    "stationCode": "BUS",
    "lat": "25.248752",
    "lng": "80.651318"
  },
  {
    "stationName": "bauria junction",
    "stationCode": "BVA",
    "lat": "22.503200",
    "lng": "88.163198"
  },
  {
    "stationName": "bayyavaram",
    "stationCode": "BVM",
    "lat": "17.660135",
    "lng": "82.930230"
  },
  {
    "stationName": "bhilavdi",
    "stationCode": "BVQ",
    "lat": "17.008222",
    "lng": "74.515840"
  },
  {
    "stationName": "belvandi",
    "stationCode": "BWD",
    "lat": "18.711212",
    "lng": "74.622567"
  },
  {
    "stationName": "bawanikhera",
    "stationCode": "BWK",
    "lat": "28.939529",
    "lng": "76.032490"
  },
  {
    "stationName": "barwasagar",
    "stationCode": "BWR",
    "lat": "25.351938",
    "lng": "78.731790"
  },
  {
    "stationName": "bangarapet",
    "stationCode": "BWY",
    "lat": "12.985113",
    "lng": "78.178729"
  },
  {
    "stationName": "billi",
    "stationCode": "BXLL",
    "lat": "24.460334",
    "lng": "83.017820"
  },
  {
    "stationName": "bordhal",
    "stationCode": "BXY",
    "lat": "21.996257",
    "lng": "78.348434"
  },
  {
    "stationName": "baryaram",
    "stationCode": "BYHA",
    "lat": "25.566736",
    "lng": "82.226740"
  },
  {
    "stationName": "baijnathpur",
    "stationCode": "BYP",
    "lat": "25.900673",
    "lng": "86.653844"
  },
  {
    "stationName": "bazidajatan",
    "stationCode": "BZJT",
    "lat": "29.612864",
    "lng": "76.965187"
  },
  {
    "stationName": "bagnan",
    "stationCode": "BZN",
    "lat": "22.462080",
    "lng": "87.969865"
  },
  {
    "stationName": "bhupiamao",
    "stationCode": "VPO",
    "lat": "25.875360",
    "lng": "81.970512"
  },
  {
    "stationName": "bijaysota",
    "stationCode": "VST",
    "lat": "23.979420",
    "lng": "81.090557"
  },
  {
    "stationName": "balwa",
    "stationCode": "WAB",
    "lat": "29.407173",
    "lng": "77.301966"
  },
  {
    "stationName": "badnera junction",
    "stationCode": "BD",
    "lat": "20.857539",
    "lng": "77.732681"
  },
  {
    "stationName": "baidyanathdham",
    "stationCode": "BDME",
    "lat": "24.489150",
    "lng": "86.691994"
  },
  {
    "stationName": "balharshah",
    "stationCode": "BPQ",
    "lat": "19.848915",
    "lng": "79.348095"
  },
  {
    "stationName": "bandel junction",
    "stationCode": "BDC",
    "lat": "22.923202",
    "lng": "88.378352"
  },
  {
    "stationName": "bangalore cantt",
    "stationCode": "BNC",
    "lat": "12.993411",
    "lng": "77.599369"
  },
  {
    "stationName": "bapatla",
    "stationCode": "BPP",
    "lat": "15.908480",
    "lng": "80.468343"
  },
  {
    "stationName": "barabil",
    "stationCode": "BBL",
    "lat": "22.104630",
    "lng": "85.369134"
  },
  {
    "stationName": "barhni",
    "stationCode": "BNY",
    "lat": "27.495672",
    "lng": "82.791643"
  },
  {
    "stationName": "barsoi",
    "stationCode": "BOE",
    "lat": "25.650915",
    "lng": "87.922594"
  },
  {
    "stationName": "bayana",
    "stationCode": "BXN",
    "lat": "26.916311",
    "lng": "77.296610"
  },
  {
    "stationName": "bellary junction",
    "stationCode": "BAY",
    "lat": "15.145427",
    "lng": "76.922197"
  },
  {
    "stationName": "bhadrakh",
    "stationCode": "BHC",
    "lat": "21.091064",
    "lng": "86.515917"
  },
  {
    "stationName": "bhatapara",
    "stationCode": "BYT",
    "lat": "21.732935",
    "lng": "81.946485"
  },
  {
    "stationName": "bhilwara",
    "stationCode": "BHL",
    "lat": "25.344179",
    "lng": "74.631224"
  },
  {
    "stationName": "bhiwani",
    "stationCode": "BNW",
    "lat": "28.797921",
    "lng": "76.125056"
  },
  {
    "stationName": "bhuj",
    "stationCode": "BHUJ",
    "lat": "23.266100",
    "lng": "69.678415"
  },
  {
    "stationName": "bikaner",
    "stationCode": "BKN",
    "lat": "28.014545",
    "lng": "73.315967"
  },
  {
    "stationName": "birur",
    "stationCode": "RRB",
    "lat": "13.592245",
    "lng": "75.973331"
  },
  {
    "stationName": "bolpurshantiniketan",
    "stationCode": "BHP",
    "lat": "23.658354",
    "lng": "87.698750"
  },
  {
    "stationName": "budaun",
    "stationCode": "BEM",
    "lat": "28.027835",
    "lng": "79.136278"
  },
  {
    "stationName": "bandra",
    "stationCode": "BA",
    "lat": "19.055585",
    "lng": "72.840398"
  },
  {
    "stationName": "bhagega",
    "stationCode": "BAGA",
    "lat": "27.677348",
    "lng": "75.721053"
  },
  {
    "stationName": "bakal",
    "stationCode": "BAKL",
    "lat": "21.124124",
    "lng": "80.941925"
  },
  {
    "stationName": "balugan",
    "stationCode": "BALU",
    "lat": "19.747557",
    "lng": "85.200892"
  },
  {
    "stationName": "bano",
    "stationCode": "BANO",
    "lat": "22.664688",
    "lng": "84.902606"
  },
  {
    "stationName": "barh",
    "stationCode": "BARH",
    "lat": "25.462240",
    "lng": "85.709675"
  },
  {
    "stationName": "baruva",
    "stationCode": "BAV",
    "lat": "18.901191",
    "lng": "84.554678"
  },
  {
    "stationName": "babrala",
    "stationCode": "BBA",
    "lat": "28.266606",
    "lng": "78.403555"
  },
  {
    "stationName": "barabhum",
    "stationCode": "BBM",
    "lat": "23.091834",
    "lng": "86.211725"
  },
  {
    "stationName": "bagbazar",
    "stationCode": "BBR",
    "lat": "22.605025",
    "lng": "88.365188"
  },
  {
    "stationName": "bareilly city",
    "stationCode": "BC",
    "lat": "28.355845",
    "lng": "79.403203"
  },
  {
    "stationName": "bacheli",
    "stationCode": "BCHL",
    "lat": "18.703824",
    "lng": "81.238400"
  },
  {
    "stationName": "bhachau",
    "stationCode": "BCO",
    "lat": "23.304222",
    "lng": "70.350614"
  },
  {
    "stationName": "barchi road",
    "stationCode": "BCRD",
    "lat": "21.952437",
    "lng": "78.312099"
  },
  {
    "stationName": "bhadrachalam road",
    "stationCode": "BDCR",
    "lat": "17.550340",
    "lng": "80.616049"
  },
  {
    "stationName": "badhada",
    "stationCode": "BDHA",
    "lat": "21.269720",
    "lng": "71.337103"
  },
  {
    "stationName": "bhadli",
    "stationCode": "BDI",
    "lat": "21.023070",
    "lng": "75.673460"
  },
  {
    "stationName": "bhadan",
    "stationCode": "BDN",
    "lat": "26.979461",
    "lng": "78.737557"
  },
  {
    "stationName": "badnapur",
    "stationCode": "BDU",
    "lat": "19.874729",
    "lng": "75.723030"
  },
  {
    "stationName": "bodwad",
    "stationCode": "BDWD",
    "lat": "20.903793",
    "lng": "76.017167"
  },
  {
    "stationName": "badkulla",
    "stationCode": "BDZ",
    "lat": "23.305636",
    "lng": "88.526209"
  },
  {
    "stationName": "behtagokul",
    "stationCode": "BEG",
    "lat": "27.531012",
    "lng": "80.054894"
  },
  {
    "stationName": "bundki",
    "stationCode": "BEK",
    "lat": "29.522772",
    "lng": "78.393486"
  },
  {
    "stationName": "beawar",
    "stationCode": "BER",
    "lat": "26.108440",
    "lng": "74.314460"
  },
  {
    "stationName": "bcementnagar",
    "stationCode": "BEY",
    "lat": "15.486290",
    "lng": "78.195332"
  },
  {
    "stationName": "bhabta",
    "stationCode": "BFT",
    "lat": "23.986870",
    "lng": "88.241565"
  },
  {
    "stationName": "balagarh",
    "stationCode": "BGAE",
    "lat": "23.122157",
    "lng": "88.453162"
  },
  {
    "stationName": "borraguhallu",
    "stationCode": "BGHU",
    "lat": "18.275062",
    "lng": "83.040196"
  },
  {
    "stationName": "bhagwanpura",
    "stationCode": "BGPR",
    "lat": "25.407277",
    "lng": "73.354087"
  },
  {
    "stationName": "bisugirsharif",
    "stationCode": "BGSF",
    "lat": "18.347703",
    "lng": "79.483149"
  },
  {
    "stationName": "bhigwan",
    "stationCode": "BGVN",
    "lat": "18.317124",
    "lng": "74.774622"
  },
  {
    "stationName": "bahadurgarh",
    "stationCode": "BGZ",
    "lat": "28.701281",
    "lng": "76.930864"
  },
  {
    "stationName": "baheri",
    "stationCode": "BHI",
    "lat": "28.357141",
    "lng": "79.401377"
  },
  {
    "stationName": "bhalki",
    "stationCode": "BHLK",
    "lat": "18.047266",
    "lng": "77.228162"
  },
  {
    "stationName": "bhansi",
    "stationCode": "BHNS",
    "lat": "18.777804",
    "lng": "81.265099"
  },
  {
    "stationName": "bhatel",
    "stationCode": "BHTL",
    "lat": "22.163868",
    "lng": "69.493415"
  },
  {
    "stationName": "bhua",
    "stationCode": "BHUA",
    "lat": "25.944881",
    "lng": "79.350423"
  },
  {
    "stationName": "bhayavadar",
    "stationCode": "BHY",
    "lat": "21.847941",
    "lng": "70.236234"
  },
  {
    "stationName": "bidadi",
    "stationCode": "BID",
    "lat": "12.800521",
    "lng": "77.390396"
  },
  {
    "stationName": "birnagar",
    "stationCode": "BIJ",
    "lat": "23.236414",
    "lng": "88.551797"
  },
  {
    "stationName": "bilimora junction",
    "stationCode": "BIM",
    "lat": "20.765665",
    "lng": "72.970303"
  },
  {
    "stationName": "bheempura",
    "stationCode": "BIPR",
    "lat": "25.120541",
    "lng": "72.384973"
  },
  {
    "stationName": "bishengarh",
    "stationCode": "BISH",
    "lat": "25.448681",
    "lng": "72.574959"
  },
  {
    "stationName": "bahjoi",
    "stationCode": "BJ",
    "lat": "28.401084",
    "lng": "78.631078"
  },
  {
    "stationName": "bijni",
    "stationCode": "BJF",
    "lat": "26.497658",
    "lng": "90.703535"
  },
  {
    "stationName": "barajamda",
    "stationCode": "BJMD",
    "lat": "22.165269",
    "lng": "85.409817"
  },
  {
    "stationName": "bakra road",
    "stationCode": "BK",
    "lat": "25.213677",
    "lng": "72.488694"
  },
  {
    "stationName": "bankhedi",
    "stationCode": "BKH",
    "lat": "22.775370",
    "lng": "78.538491"
  },
  {
    "stationName": "bakudi",
    "stationCode": "BKLE",
    "lat": "24.926932",
    "lng": "87.780278"
  },
  {
    "stationName": "bokarothermal",
    "stationCode": "BKRO",
    "lat": "23.785423",
    "lng": "85.875851"
  },
  {
    "stationName": "bolda",
    "stationCode": "BLC",
    "lat": "19.551687",
    "lng": "77.273266"
  },
  {
    "stationName": "bilharghat",
    "stationCode": "BLG",
    "lat": "26.681591",
    "lng": "82.269283"
  },
  {
    "stationName": "bantanahal",
    "stationCode": "BLL",
    "lat": "15.163026",
    "lng": "77.275866"
  },
  {
    "stationName": "bhalukmara",
    "stationCode": "BLMR",
    "lat": "26.669526",
    "lng": "94.123813"
  },
  {
    "stationName": "bilaspur road",
    "stationCode": "BLOR",
    "lat": "28.865072",
    "lng": "79.253716"
  },
  {
    "stationName": "bala road",
    "stationCode": "BLRD",
    "lat": "22.797305",
    "lng": "71.696503"
  },
  {
    "stationName": "belsonda",
    "stationCode": "BLSN",
    "lat": "21.154687",
    "lng": "82.035378"
  },
  {
    "stationName": "balawali",
    "stationCode": "BLW",
    "lat": "29.627370",
    "lng": "78.112283"
  },
  {
    "stationName": "budhlada",
    "stationCode": "BLZ",
    "lat": "29.922011",
    "lng": "75.548968"
  },
  {
    "stationName": "bhimadolu",
    "stationCode": "BMD",
    "lat": "16.808272",
    "lng": "81.261285"
  },
  {
    "stationName": "betamcherla",
    "stationCode": "BMH",
    "lat": "15.449324",
    "lng": "78.148450"
  },
  {
    "stationName": "bhimkhoj",
    "stationCode": "BMKJ",
    "lat": "21.080100",
    "lng": "82.288863"
  },
  {
    "stationName": "brahmanpalli",
    "stationCode": "BMPL",
    "lat": "17.833066",
    "lng": "78.450327"
  },
  {
    "stationName": "bamsin",
    "stationCode": "BMSN",
    "lat": "25.762750",
    "lng": "72.544226"
  },
  {
    "stationName": "bondamunda",
    "stationCode": "BNDM",
    "lat": "22.235775",
    "lng": "84.925346"
  },
  {
    "stationName": "bhimnath",
    "stationCode": "BNH",
    "lat": "22.239516",
    "lng": "71.922120"
  },
  {
    "stationName": "bansthaliniwai",
    "stationCode": "BNLW",
    "lat": "26.384037",
    "lng": "75.935389"
  },
  {
    "stationName": "bhanapur",
    "stationCode": "BNP",
    "lat": "15.387216",
    "lng": "76.036562"
  },
  {
    "stationName": "banbasa",
    "stationCode": "BNSA",
    "lat": "28.991989",
    "lng": "80.073737"
  },
  {
    "stationName": "bhanvad",
    "stationCode": "BNUD",
    "lat": "21.932892",
    "lng": "69.798545"
  },
  {
    "stationName": "badshahnagar",
    "stationCode": "BNZ",
    "lat": "26.868956",
    "lng": "80.961728"
  },
  {
    "stationName": "bainchi",
    "stationCode": "BOI",
    "lat": "23.119562",
    "lng": "88.196640"
  },
  {
    "stationName": "boinda",
    "stationCode": "BONA",
    "lat": "20.919244",
    "lng": "84.752282"
  },
  {
    "stationName": "belampalli",
    "stationCode": "BPA",
    "lat": "19.053569",
    "lng": "79.486202"
  },
  {
    "stationName": "belpahar",
    "stationCode": "BPH",
    "lat": "21.827321",
    "lng": "83.848431"
  },
  {
    "stationName": "baripada",
    "stationCode": "BPO",
    "lat": "21.923270",
    "lng": "86.737728"
  },
  {
    "stationName": "badampudi",
    "stationCode": "BPY",
    "lat": "16.827993",
    "lng": "81.473244"
  },
  {
    "stationName": "bhagwangola",
    "stationCode": "BQG",
    "lat": "24.334809",
    "lng": "88.307703"
  },
  {
    "stationName": "bighapur",
    "stationCode": "BQP",
    "lat": "26.354985",
    "lng": "80.693298"
  },
  {
    "stationName": "bandhbareta",
    "stationCode": "BR",
    "lat": "26.910549",
    "lng": "77.364266"
  },
  {
    "stationName": "bhandara road",
    "stationCode": "BRD",
    "lat": "21.238370",
    "lng": "79.645938"
  },
  {
    "stationName": "baraigram junction",
    "stationCode": "BRGM",
    "lat": "24.681627",
    "lng": "92.341238"
  },
  {
    "stationName": "brajrajnagar",
    "stationCode": "BRJN",
    "lat": "21.822956",
    "lng": "83.924372"
  },
  {
    "stationName": "barabambo",
    "stationCode": "BRM",
    "lat": "22.701373",
    "lng": "85.728220"
  },
  {
    "stationName": "baramati",
    "stationCode": "BRMT",
    "lat": "18.153743",
    "lng": "74.578137"
  },
  {
    "stationName": "birapatti",
    "stationCode": "BRPT",
    "lat": "25.406303",
    "lng": "82.912804"
  },
  {
    "stationName": "bhortex",
    "stationCode": "BRTK",
    "lat": "21.098704",
    "lng": "75.004068"
  },
  {
    "stationName": "barhiya",
    "stationCode": "BRYA",
    "lat": "25.282730",
    "lng": "86.015463"
  },
  {
    "stationName": "bulandshahr",
    "stationCode": "BSC",
    "lat": "28.393576",
    "lng": "77.847768"
  },
  {
    "stationName": "badshahpur",
    "stationCode": "BSE",
    "lat": "25.652344",
    "lng": "82.191407"
  },
  {
    "stationName": "bishrampur",
    "stationCode": "BSPR",
    "lat": "23.178850",
    "lng": "82.983131"
  },
  {
    "stationName": "bagevadi road",
    "stationCode": "BSRX",
    "lat": "16.480069",
    "lng": "75.828256"
  },
  {
    "stationName": "bharwasumerpur",
    "stationCode": "BSZ",
    "lat": "25.826649",
    "lng": "80.168443"
  },
  {
    "stationName": "bishnathganj",
    "stationCode": "BTJ",
    "lat": "25.801533",
    "lng": "81.935053"
  },
  {
    "stationName": "bharatkup",
    "stationCode": "BTKP",
    "lat": "25.215740",
    "lng": "80.771532"
  },
  {
    "stationName": "bethampurdi",
    "stationCode": "BTPD",
    "lat": "17.542910",
    "lng": "80.570498"
  },
  {
    "stationName": "basta",
    "stationCode": "BTS",
    "lat": "21.702876",
    "lng": "87.063769"
  },
  {
    "stationName": "bethuadahari",
    "stationCode": "BTY",
    "lat": "23.611325",
    "lng": "88.384494"
  },
  {
    "stationName": "bhutakiabhimsa",
    "stationCode": "BUBR",
    "lat": "23.533682",
    "lng": "70.887077"
  },
  {
    "stationName": "burhar",
    "stationCode": "BUH",
    "lat": "23.212924",
    "lng": "81.528100"
  },
  {
    "stationName": "babupeth",
    "stationCode": "BUPH",
    "lat": "19.923062",
    "lng": "79.312480"
  },
  {
    "stationName": "baytu",
    "stationCode": "BUT",
    "lat": "25.897309",
    "lng": "71.768467"
  },
  {
    "stationName": "bhadbhadaghat",
    "stationCode": "BVB",
    "lat": "23.374801",
    "lng": "77.535509"
  },
  {
    "stationName": "biswan",
    "stationCode": "BVN",
    "lat": "27.489226",
    "lng": "80.990746"
  },
  {
    "stationName": "bhimavaram town",
    "stationCode": "BVRT",
    "lat": "16.547519",
    "lng": "81.519014"
  },
  {
    "stationName": "bhinwaliya",
    "stationCode": "BWA",
    "lat": "25.559669",
    "lng": "73.492524"
  },
  {
    "stationName": "butewala",
    "stationCode": "BWF",
    "lat": "31.080678",
    "lng": "74.897639"
  },
  {
    "stationName": "bawal",
    "stationCode": "BWL",
    "lat": "28.070068",
    "lng": "76.572177"
  },
  {
    "stationName": "bharatwada",
    "stationCode": "BWRA",
    "lat": "21.231267",
    "lng": "79.016697"
  },
  {
    "stationName": "balod",
    "stationCode": "BXA",
    "lat": "20.740806",
    "lng": "81.205202"
  },
  {
    "stationName": "belrayan",
    "stationCode": "BXM",
    "lat": "28.379314",
    "lng": "80.915961"
  },
  {
    "stationName": "byculla",
    "stationCode": "BY",
    "lat": "18.975942",
    "lng": "72.832784"
  },
  {
    "stationName": "belha",
    "stationCode": "BYL",
    "lat": "21.961639",
    "lng": "82.076926"
  },
  {
    "stationName": "baiyyappanahali",
    "stationCode": "BYPL",
    "lat": "12.990874",
    "lng": "77.651554"
  },
  {
    "stationName": "bhaini khurd",
    "stationCode": "BZK",
    "lat": "29.751994",
    "lng": "76.955776"
  },
  {
    "stationName": "barsola",
    "stationCode": "BZO",
    "lat": "29.394688",
    "lng": "76.232315"
  },
  {
    "stationName": "barara",
    "stationCode": "RAA",
    "lat": "30.212964",
    "lng": "77.037905"
  },
  {
    "stationName": "binaiki",
    "stationCode": "VNK",
    "lat": "22.720210",
    "lng": "79.902711"
  },
  {
    "stationName": "bishnupur",
    "stationCode": "VSU",
    "lat": "23.064968",
    "lng": "87.301303"
  },
  {
    "stationName": "bagaha",
    "stationCode": "BUG",
    "lat": "27.130226",
    "lng": "84.067336"
  },
  {
    "stationName": "bakthiyarpur",
    "stationCode": "BKP",
    "lat": "25.455888",
    "lng": "85.532252"
  },
  {
    "stationName": "ballia",
    "stationCode": "BUI",
    "lat": "25.760552",
    "lng": "84.153121"
  },
  {
    "stationName": "bandikui junction",
    "stationCode": "BKI",
    "lat": "27.039327",
    "lng": "76.566678"
  },
  {
    "stationName": "bangarapet",
    "stationCode": "BWY",
    "lat": "12.985113",
    "lng": "78.178729"
  },
  {
    "stationName": "barabanki junction",
    "stationCode": "BBK",
    "lat": "26.935366",
    "lng": "81.181172"
  },
  {
    "stationName": "barddhaman junction",
    "stationCode": "BWN",
    "lat": "23.249139",
    "lng": "87.870529"
  },
  {
    "stationName": "barkakana",
    "stationCode": "BRKA",
    "lat": "23.624137",
    "lng": "85.470097"
  },
  {
    "stationName": "barwadih",
    "stationCode": "BRWD",
    "lat": "23.843864",
    "lng": "84.119006"
  },
  {
    "stationName": "beas",
    "stationCode": "BEAS",
    "lat": "31.520020",
    "lng": "75.291231"
  },
  {
    "stationName": "bettiah",
    "stationCode": "BTH",
    "lat": "26.805361",
    "lng": "84.522368"
  },
  {
    "stationName": "bhagalpur",
    "stationCode": "BGP",
    "lat": "25.242250",
    "lng": "86.977165"
  },
  {
    "stationName": "bhatkal",
    "stationCode": "BTKL",
    "lat": "13.989313",
    "lng": "74.566008"
  },
  {
    "stationName": "bhimavaram junction",
    "stationCode": "BVRM",
    "lat": "16.542377",
    "lng": "81.539429"
  },
  {
    "stationName": "bhojipura",
    "stationCode": "BPR",
    "lat": "28.494493",
    "lng": "79.447650"
  },
  {
    "stationName": "bhusaval",
    "stationCode": "BSL",
    "lat": "21.046936",
    "lng": "75.788358"
  },
  {
    "stationName": "bilaspur junction",
    "stationCode": "BSP",
    "lat": "22.057323",
    "lng": "82.167513"
  },
  {
    "stationName": "bitragunta",
    "stationCode": "BTTR",
    "lat": "14.768554",
    "lng": "79.983405"
  },
  {
    "stationName": "borivali",
    "stationCode": "BVI",
    "lat": "19.222119",
    "lng": "72.855338"
  },
  {
    "stationName": "burhanpur",
    "stationCode": "BAU",
    "lat": "21.334612",
    "lng": "76.198915"
  },
  {
    "stationName": "babina",
    "stationCode": "BAB",
    "lat": "25.237913",
    "lng": "78.451392"
  },
  {
    "stationName": "bhabhar",
    "stationCode": "BAH",
    "lat": "24.065088",
    "lng": "71.615549"
  },
  {
    "stationName": "budalur",
    "stationCode": "BAL",
    "lat": "10.783209",
    "lng": "78.981748"
  },
  {
    "stationName": "berhampur",
    "stationCode": "BAM",
    "lat": "19.296241",
    "lng": "84.797099"
  },
  {
    "stationName": "banmor",
    "stationCode": "BAO",
    "lat": "26.355437",
    "lng": "78.098791"
  },
  {
    "stationName": "baral",
    "stationCode": "BARL",
    "lat": "28.494502",
    "lng": "77.809861"
  },
  {
    "stationName": "balwara",
    "stationCode": "BAWA",
    "lat": "25.502804",
    "lng": "72.554319"
  },
  {
    "stationName": "bhadbhunja",
    "stationCode": "BBAI",
    "lat": "21.162920",
    "lng": "73.665789"
  },
  {
    "stationName": "baribrahman",
    "stationCode": "BBMN",
    "lat": "32.639095",
    "lng": "74.916377"
  },
  {
    "stationName": "barbatpur",
    "stationCode": "BBTR",
    "lat": "22.196731",
    "lng": "77.920403"
  },
  {
    "stationName": "bachwara junction",
    "stationCode": "BCA",
    "lat": "25.581398",
    "lng": "85.900230"
  },
  {
    "stationName": "balichak",
    "stationCode": "BCK",
    "lat": "22.357748",
    "lng": "87.553353"
  },
  {
    "stationName": "bhachaubg",
    "stationCode": "BCOB",
    "lat": "23.304192",
    "lng": "70.350318"
  },
  {
    "stationName": "bhuchchu",
    "stationCode": "BCU",
    "lat": "23.304217",
    "lng": "70.350281"
  },
  {
    "stationName": "badodar",
    "stationCode": "BDDR",
    "lat": "21.339956",
    "lng": "70.274662"
  },
  {
    "stationName": "badhal",
    "stationCode": "BDHL",
    "lat": "27.251983",
    "lng": "75.451789"
  },
  {
    "stationName": "bodinayakkanur",
    "stationCode": "BDNK",
    "lat": "10.020830",
    "lng": "77.346547"
  },
  {
    "stationName": "bhadravati",
    "stationCode": "BDVT",
    "lat": "13.842429",
    "lng": "75.702782"
  },
  {
    "stationName": "biradhwal",
    "stationCode": "BDWL",
    "lat": "29.174913",
    "lng": "73.897006"
  },
  {
    "stationName": "bihiya",
    "stationCode": "BEA",
    "lat": "25.558761",
    "lng": "84.448877"
  },
  {
    "stationName": "bagdihi",
    "stationCode": "BEH",
    "lat": "21.951173",
    "lng": "84.186405"
  },
  {
    "stationName": "birohe",
    "stationCode": "BEO",
    "lat": "25.172150",
    "lng": "82.457360"
  },
  {
    "stationName": "bero",
    "stationCode": "BERO",
    "lat": "23.548188",
    "lng": "86.726439"
  },
  {
    "stationName": "borhat",
    "stationCode": "BFD",
    "lat": "27.163951",
    "lng": "95.277047"
  },
  {
    "stationName": "bhesana",
    "stationCode": "BFY",
    "lat": "23.498325",
    "lng": "72.330886"
  },
  {
    "stationName": "bagbahra",
    "stationCode": "BGBR",
    "lat": "21.046102",
    "lng": "82.383931"
  },
  {
    "stationName": "bhagat ki kothi",
    "stationCode": "BGKT",
    "lat": "26.252995",
    "lng": "73.014484"
  },
  {
    "stationName": "bhongaon",
    "stationCode": "BGQ",
    "lat": "27.258788",
    "lng": "79.165524"
  },
  {
    "stationName": "bagratawa",
    "stationCode": "BGTA",
    "lat": "22.631099",
    "lng": "77.994129"
  },
  {
    "stationName": "begdewadi",
    "stationCode": "BGW",
    "lat": "18.700724",
    "lng": "73.708946"
  },
  {
    "stationName": "badli",
    "stationCode": "BHD",
    "lat": "28.746377",
    "lng": "77.137136"
  },
  {
    "stationName": "bheja",
    "stationCode": "BHJA",
    "lat": "18.473010",
    "lng": "82.685433"
  },
  {
    "stationName": "bhulanpur",
    "stationCode": "BHLP",
    "lat": "25.287600",
    "lng": "82.957122"
  },
  {
    "stationName": "bhattu",
    "stationCode": "BHT",
    "lat": "29.386761",
    "lng": "75.339490"
  },
  {
    "stationName": "bhitoni",
    "stationCode": "BHTN",
    "lat": "23.142656",
    "lng": "79.673862"
  },
  {
    "stationName": "bhoma",
    "stationCode": "BHV",
    "lat": "22.171241",
    "lng": "79.689374"
  },
  {
    "stationName": "bihara",
    "stationCode": "BHZ",
    "lat": "24.952912",
    "lng": "92.644269"
  },
  {
    "stationName": "bidar",
    "stationCode": "BIDR",
    "lat": "17.911666",
    "lng": "77.515647"
  },
  {
    "stationName": "bijoor",
    "stationCode": "BIJR",
    "lat": "13.822690",
    "lng": "74.642540"
  },
  {
    "stationName": "bhimal",
    "stationCode": "BIML",
    "lat": "24.752619",
    "lng": "73.922449"
  },
  {
    "stationName": "bansipaharpur",
    "stationCode": "BIQ",
    "lat": "26.934869",
    "lng": "77.481955"
  },
  {
    "stationName": "bijrotha",
    "stationCode": "BJA",
    "lat": "24.946620",
    "lng": "78.420874"
  },
  {
    "stationName": "bijauli",
    "stationCode": "BJI",
    "lat": "25.376325",
    "lng": "78.517310"
  },
  {
    "stationName": "baijnath mandir halt",
    "stationCode": "BJMR",
    "lat": "32.045478",
    "lng": "76.644140"
  },
  {
    "stationName": "baghora",
    "stationCode": "BJQ",
    "lat": "24.136102",
    "lng": "78.260705"
  },
  {
    "stationName": "barkhera",
    "stationCode": "BKA",
    "lat": "22.917542",
    "lng": "77.649843"
  },
  {
    "stationName": "bakhri",
    "stationCode": "BKHR",
    "lat": "25.499328",
    "lng": "87.335482"
  },
  {
    "stationName": "bhaktinagar",
    "stationCode": "BKNG",
    "lat": "22.281790",
    "lng": "70.792695"
  },
  {
    "stationName": "baikunth",
    "stationCode": "BKTH",
    "lat": "21.497507",
    "lng": "81.780088"
  },
  {
    "stationName": "bhilad",
    "stationCode": "BLD",
    "lat": "20.275804",
    "lng": "72.887803"
  },
  {
    "stationName": "balangir",
    "stationCode": "BLGR",
    "lat": "20.687596",
    "lng": "83.494033"
  },
  {
    "stationName": "balli",
    "stationCode": "BLLI",
    "lat": "25.760484",
    "lng": "84.153076"
  },
  {
    "stationName": "bolinnadoaba",
    "stationCode": "BLND",
    "lat": "31.342250",
    "lng": "75.656576"
  },
  {
    "stationName": "balrampur",
    "stationCode": "BLP",
    "lat": "27.415624",
    "lng": "82.160736"
  },
  {
    "stationName": "balotra junction",
    "stationCode": "BLT",
    "lat": "25.830285",
    "lng": "72.248521"
  },
  {
    "stationName": "bamra",
    "stationCode": "BMB",
    "lat": "22.051752",
    "lng": "84.291341"
  },
  {
    "stationName": "basmat",
    "stationCode": "BMF",
    "lat": "19.333007",
    "lng": "77.151301"
  },
  {
    "stationName": "bamanheri",
    "stationCode": "BMHR",
    "lat": "29.514659",
    "lng": "77.706298"
  },
  {
    "stationName": "bamla",
    "stationCode": "BMLL",
    "lat": "28.825503",
    "lng": "76.144046"
  },
  {
    "stationName": "badampahar",
    "stationCode": "BMPR",
    "lat": "22.088555",
    "lng": "86.112143"
  },
  {
    "stationName": "bhimasar",
    "stationCode": "BMSR",
    "lat": "23.186378",
    "lng": "70.175020"
  },
  {
    "stationName": "bibinagar",
    "stationCode": "BB",
    "lat": "17.471070",
    "lng": "78.794582"
  },
  {
    "stationName": "bohani",
    "stationCode": "BNE",
    "lat": "22.913271",
    "lng": "78.915672"
  },
  {
    "stationName": "baragaon",
    "stationCode": "BNM",
    "lat": "26.755835",
    "lng": "81.847495"
  },
  {
    "stationName": "bharthana",
    "stationCode": "BNT",
    "lat": "26.750727",
    "lng": "79.217133"
  },
  {
    "stationName": "bobas",
    "stationCode": "BOBS",
    "lat": "26.905730",
    "lng": "75.498355"
  },
  {
    "stationName": "bhojo",
    "stationCode": "BOJ",
    "lat": "27.063447",
    "lng": "95.032331"
  },
  {
    "stationName": "boisar",
    "stationCode": "BOR",
    "lat": "19.797601",
    "lng": "72.761716"
  },
  {
    "stationName": "borawar",
    "stationCode": "BOW",
    "lat": "27.028605",
    "lng": "74.669842"
  },
  {
    "stationName": "berhamporecrt",
    "stationCode": "BPC",
    "lat": "24.089383",
    "lng": "88.263964"
  },
  {
    "stationName": "barpeta road",
    "stationCode": "BPRD",
    "lat": "26.502358",
    "lng": "90.964814"
  },
  {
    "stationName": "bazpur",
    "stationCode": "BPZ",
    "lat": "29.158102",
    "lng": "79.146462"
  },
  {
    "stationName": "bommidi",
    "stationCode": "BQI",
    "lat": "11.984332",
    "lng": "78.245801"
  },
  {
    "stationName": "bakhleta",
    "stationCode": "BQQ",
    "lat": "23.875488",
    "lng": "80.064212"
  },
  {
    "stationName": "birsola",
    "stationCode": "BRA",
    "lat": "21.598822",
    "lng": "80.207163"
  },
  {
    "stationName": "bheraghat",
    "stationCode": "BRGT",
    "lat": "23.169976",
    "lng": "79.797896"
  },
  {
    "stationName": "bahraich",
    "stationCode": "BRK",
    "lat": "27.581907",
    "lng": "81.607874"
  },
  {
    "stationName": "barhan",
    "stationCode": "BRN",
    "lat": "27.329349",
    "lng": "78.191802"
  },
  {
    "stationName": "barakar",
    "stationCode": "BRR",
    "lat": "23.741502",
    "lng": "86.819833"
  },
  {
    "stationName": "bhairoganj",
    "stationCode": "BRU",
    "lat": "27.151892",
    "lng": "84.242474"
  },
  {
    "stationName": "bareta",
    "stationCode": "BRZ",
    "lat": "29.859506",
    "lng": "75.692525"
  },
  {
    "stationName": "basugaon",
    "stationCode": "BSGN",
    "lat": "26.460363",
    "lng": "90.420569"
  },
  {
    "stationName": "banasandra",
    "stationCode": "BSN",
    "lat": "13.265740",
    "lng": "76.659089"
  },
  {
    "stationName": "barsitakli",
    "stationCode": "BSQ",
    "lat": "20.576014",
    "lng": "77.060916"
  },
  {
    "stationName": "barasat",
    "stationCode": "BT",
    "lat": "22.724448",
    "lng": "88.484321"
  },
  {
    "stationName": "bankata",
    "stationCode": "BTK",
    "lat": "26.266061",
    "lng": "84.094727"
  },
  {
    "stationName": "bortalao",
    "stationCode": "BTL",
    "lat": "21.217976",
    "lng": "80.626116"
  },
  {
    "stationName": "bhatpur",
    "stationCode": "BTPR",
    "lat": "22.138204",
    "lng": "73.647566"
  },
  {
    "stationName": "baitarani road",
    "stationCode": "BTV",
    "lat": "20.987449",
    "lng": "86.235779"
  },
  {
    "stationName": "baswa",
    "stationCode": "BU",
    "lat": "27.150398",
    "lng": "76.575450"
  },
  {
    "stationName": "badlapur",
    "stationCode": "BUD",
    "lat": "19.166700",
    "lng": "73.239661"
  },
  {
    "stationName": "bhalulata",
    "stationCode": "BUL",
    "lat": "22.266575",
    "lng": "85.060264"
  },
  {
    "stationName": "bargi",
    "stationCode": "BUQ",
    "lat": "22.995642",
    "lng": "79.874773"
  },
  {
    "stationName": "bhandak",
    "stationCode": "BUX",
    "lat": "20.084599",
    "lng": "79.112916"
  },
  {
    "stationName": "ballabgarh",
    "stationCode": "BVH",
    "lat": "28.340194",
    "lng": "77.312384"
  },
  {
    "stationName": "bhavaninagar",
    "stationCode": "BVNR",
    "lat": "17.200611",
    "lng": "74.252694"
  },
  {
    "stationName": "bhivpuri road",
    "stationCode": "BVS",
    "lat": "18.970001",
    "lng": "73.331511"
  },
  {
    "stationName": "bhadaura",
    "stationCode": "BWH",
    "lat": "24.786854",
    "lng": "77.411776"
  },
  {
    "stationName": "bhawanimandi",
    "stationCode": "BWM",
    "lat": "24.419662",
    "lng": "75.830069"
  },
  {
    "stationName": "badwasi",
    "stationCode": "BWS",
    "lat": "27.310664",
    "lng": "73.664016"
  },
  {
    "stationName": "barsuan",
    "stationCode": "BXF",
    "lat": "21.847428",
    "lng": "85.119854"
  },
  {
    "stationName": "barpathar",
    "stationCode": "BXP",
    "lat": "26.274493",
    "lng": "93.899459"
  },
  {
    "stationName": "bellary cant.",
    "stationCode": "BYC",
    "lat": "15.150667",
    "lng": "76.895104"
  },
  {
    "stationName": "banahi",
    "stationCode": "BYN",
    "lat": "25.561387",
    "lng": "84.390173"
  },
  {
    "stationName": "bhayandar",
    "stationCode": "BYR",
    "lat": "19.311457",
    "lng": "72.852615"
  },
  {
    "stationName": "bazarsau",
    "stationCode": "BZLE",
    "lat": "23.875782",
    "lng": "88.182886"
  },
  {
    "stationName": "bisra",
    "stationCode": "BZR",
    "lat": "22.247950",
    "lng": "84.998176"
  },
  {
    "stationName": "chakki bank",
    "stationCode": "CHKB",
    "lat": "32.259374",
    "lng": "75.636297"
  },
  {
    "stationName": "champa",
    "stationCode": "CPH",
    "lat": "22.034491",
    "lng": "82.665101"
  },
  {
    "stationName": "chandrapur",
    "stationCode": "CD",
    "lat": "19.959867",
    "lng": "79.300216"
  },
  {
    "stationName": "chennai egmore",
    "stationCode": "MS",
    "lat": "13.078621",
    "lng": "80.261326"
  },
  {
    "stationName": "chiplun",
    "stationCode": "CHI",
    "lat": "17.542171",
    "lng": "73.522106"
  },
  {
    "stationName": "chittaurgarh",
    "stationCode": "COR",
    "lat": "24.874776",
    "lng": "74.624158"
  },
  {
    "stationName": "churu",
    "stationCode": "CUR",
    "lat": "28.288831",
    "lng": "74.966732"
  },
  {
    "stationName": "cuddapah",
    "stationCode": "HX",
    "lat": "14.451657",
    "lng": "78.829252"
  },
  {
    "stationName": "chakrajmal",
    "stationCode": "CAJ",
    "lat": "29.249711",
    "lng": "78.536044"
  },
  {
    "stationName": "coimbatore",
    "stationCode": "CBEE",
    "lat": "10.996415",
    "lng": "76.966855"
  },
  {
    "stationName": "clutterbuckganj",
    "stationCode": "CBJ",
    "lat": "28.396535",
    "lng": "79.371665"
  },
  {
    "stationName": "chikballapur",
    "stationCode": "CBP",
    "lat": "13.431532",
    "lng": "77.732852"
  },
  {
    "stationName": "chinchvad",
    "stationCode": "CCH",
    "lat": "18.639464",
    "lng": "73.791806"
  },
  {
    "stationName": "chandanchauki",
    "stationCode": "CDC",
    "lat": "28.545040",
    "lng": "80.770086"
  },
  {
    "stationName": "chandlodiya",
    "stationCode": "CDLD",
    "lat": "23.075458",
    "lng": "72.544203"
  },
  {
    "stationName": "chhandrauli",
    "stationCode": "CDRL",
    "lat": "26.699536",
    "lng": "81.230992"
  },
  {
    "stationName": "chebrol",
    "stationCode": "CEL",
    "lat": "16.819875",
    "lng": "81.396169"
  },
  {
    "stationName": "chandragiri",
    "stationCode": "CGI",
    "lat": "13.611808",
    "lng": "79.312102"
  },
  {
    "stationName": "changanassery",
    "stationCode": "CGY",
    "lat": "9.450649",
    "lng": "76.547216"
  },
  {
    "stationName": "chakarbhatha",
    "stationCode": "CHBT",
    "lat": "22.002951",
    "lng": "82.111815"
  },
  {
    "stationName": "chavalkhede",
    "stationCode": "CHLK",
    "lat": "21.024845",
    "lng": "75.352101"
  },
  {
    "stationName": "chhapi",
    "stationCode": "CHP",
    "lat": "24.035128",
    "lng": "72.400437"
  },
  {
    "stationName": "cochinhrbrtms",
    "stationCode": "CHTS",
    "lat": "9.960545",
    "lng": "76.267539"
  },
  {
    "stationName": "chilbila junction",
    "stationCode": "CIL",
    "lat": "25.947004",
    "lng": "82.004098"
  },
  {
    "stationName": "chhatna",
    "stationCode": "CJN",
    "lat": "23.305074",
    "lng": "86.975496"
  },
  {
    "stationName": "chauth ka barwara",
    "stationCode": "CKB",
    "lat": "26.050952",
    "lng": "76.148717"
  },
  {
    "stationName": "chalakudi",
    "stationCode": "CKI",
    "lat": "10.301904",
    "lng": "76.321880"
  },
  {
    "stationName": "chikodi road",
    "stationCode": "CKR",
    "lat": "16.368857",
    "lng": "74.769300"
  },
  {
    "stationName": "chilka",
    "stationCode": "CLKA",
    "lat": "19.686294",
    "lng": "85.179533"
  },
  {
    "stationName": "chilakalapudi",
    "stationCode": "CLU",
    "lat": "16.202580",
    "lng": "81.162109"
  },
  {
    "stationName": "chimidipalli",
    "stationCode": "CMDP",
    "lat": "18.262233",
    "lng": "83.076702"
  },
  {
    "stationName": "chimapahad",
    "stationCode": "CMW",
    "lat": "17.516119",
    "lng": "80.464011"
  },
  {
    "stationName": "chanderiya",
    "stationCode": "CNA",
    "lat": "24.939458",
    "lng": "74.629996"
  },
  {
    "stationName": "chandranathpur",
    "stationCode": "CNE",
    "lat": "24.963324",
    "lng": "92.689536"
  },
  {
    "stationName": "chandawal",
    "stationCode": "CNL",
    "lat": "25.946767",
    "lng": "73.868904"
  },
  {
    "stationName": "contai road",
    "stationCode": "CNT",
    "lat": "22.071562",
    "lng": "87.336704"
  },
  {
    "stationName": "chhotagudha",
    "stationCode": "COD",
    "lat": "27.306546",
    "lng": "75.589053"
  },
  {
    "stationName": "cuddalore junction",
    "stationCode": "COT",
    "lat": "11.715023",
    "lng": "79.766319"
  },
  {
    "stationName": "chandiposi",
    "stationCode": "CPE",
    "lat": "22.064522",
    "lng": "84.909198"
  },
  {
    "stationName": "chipurupalle",
    "stationCode": "CPP",
    "lat": "18.316712",
    "lng": "83.570142"
  },
  {
    "stationName": "chausa",
    "stationCode": "CSA",
    "lat": "25.499027",
    "lng": "83.896846"
  },
  {
    "stationName": "cossimbazar",
    "stationCode": "CSZ",
    "lat": "24.122256",
    "lng": "88.266937"
  },
  {
    "stationName": "chitgidda",
    "stationCode": "CTF",
    "lat": "17.393915",
    "lng": "77.973167"
  },
  {
    "stationName": "chital",
    "stationCode": "CTL",
    "lat": "21.745549",
    "lng": "71.217964"
  },
  {
    "stationName": "chitrawad",
    "stationCode": "CTRD",
    "lat": "21.101027",
    "lng": "70.556944"
  },
  {
    "stationName": "chityala",
    "stationCode": "CTYL",
    "lat": "17.222381",
    "lng": "79.134858"
  },
  {
    "stationName": "chondi",
    "stationCode": "CWI",
    "lat": "18.726820",
    "lng": "72.881967"
  },
  {
    "stationName": "chakradharpur",
    "stationCode": "CKP",
    "lat": "22.676253",
    "lng": "85.624326"
  },
  {
    "stationName": "chandausi",
    "stationCode": "CH",
    "lat": "28.459335",
    "lng": "78.780370"
  },
  {
    "stationName": "chandrapura",
    "stationCode": "CRP",
    "lat": "23.755732",
    "lng": "86.119741"
  },
  {
    "stationName": "chengalpattu junction",
    "stationCode": "CGL",
    "lat": "12.695021",
    "lng": "79.981399"
  },
  {
    "stationName": "chhapra",
    "stationCode": "CPR",
    "lat": "25.788435",
    "lng": "84.724714"
  },
  {
    "stationName": "chirala",
    "stationCode": "CLX",
    "lat": "15.832306",
    "lng": "80.354419"
  },
  {
    "stationName": "chittoor",
    "stationCode": "CTO",
    "lat": "13.219433",
    "lng": "79.103533"
  },
  {
    "stationName": "coimbatore junction",
    "stationCode": "CBE",
    "lat": "10.996468",
    "lng": "76.966842"
  },
  {
    "stationName": "cuttack",
    "stationCode": "CTC",
    "lat": "20.466018",
    "lng": "85.901406"
  },
  {
    "stationName": "chandafort",
    "stationCode": "CAF",
    "lat": "19.940473",
    "lng": "79.312466"
  },
  {
    "stationName": "chamua",
    "stationCode": "CAMU",
    "lat": "27.138820",
    "lng": "84.399669"
  },
  {
    "stationName": "coimbatorenrth",
    "stationCode": "CBF",
    "lat": "11.021006",
    "lng": "76.954397"
  },
  {
    "stationName": "chachaurabngj",
    "stationCode": "CBK",
    "lat": "24.177608",
    "lng": "77.015955"
  },
  {
    "stationName": "chaibasa",
    "stationCode": "CBSA",
    "lat": "22.559449",
    "lng": "85.811845"
  },
  {
    "stationName": "chaurichaura",
    "stationCode": "CC",
    "lat": "26.644735",
    "lng": "83.587325"
  },
  {
    "stationName": "chinnekuntapali",
    "stationCode": "CCI",
    "lat": "14.443491",
    "lng": "77.844994"
  },
  {
    "stationName": "chandrakona road",
    "stationCode": "CDGR",
    "lat": "22.738823",
    "lng": "87.340865"
  },
  {
    "stationName": "chandaulimjhwr",
    "stationCode": "CDMR",
    "lat": "25.273446",
    "lng": "83.183540"
  },
  {
    "stationName": "chandisar",
    "stationCode": "CDS",
    "lat": "24.206322",
    "lng": "72.312437"
  },
  {
    "stationName": "chiheru",
    "stationCode": "CEU",
    "lat": "31.262925",
    "lng": "75.706737"
  },
  {
    "stationName": "chirgaon",
    "stationCode": "CGN",
    "lat": "25.574460",
    "lng": "78.805894"
  },
  {
    "stationName": "chawapall",
    "stationCode": "CHA",
    "lat": "30.785092",
    "lng": "76.080447"
  },
  {
    "stationName": "chacher",
    "stationCode": "CHCR",
    "lat": "21.242002",
    "lng": "79.355317"
  },
  {
    "stationName": "chata",
    "stationCode": "CHJ",
    "lat": "27.712045",
    "lng": "77.502919"
  },
  {
    "stationName": "chalthan",
    "stationCode": "CHM",
    "lat": "21.157619",
    "lng": "72.956210"
  },
  {
    "stationName": "chharra",
    "stationCode": "CHRA",
    "lat": "23.402686",
    "lng": "86.454062"
  },
  {
    "stationName": "chitali",
    "stationCode": "CIT",
    "lat": "19.691284",
    "lng": "74.623622"
  },
  {
    "stationName": "chamaraj",
    "stationCode": "CJR",
    "lat": "22.737161",
    "lng": "71.560636"
  },
  {
    "stationName": "charkhidadri",
    "stationCode": "CKD",
    "lat": "28.600668",
    "lng": "76.279703"
  },
  {
    "stationName": "chakarpur",
    "stationCode": "CKK",
    "lat": "28.964163",
    "lng": "80.013295"
  },
  {
    "stationName": "chaksu",
    "stationCode": "CKS",
    "lat": "26.592921",
    "lng": "75.910631"
  },
  {
    "stationName": "chiluvur",
    "stationCode": "CLVR",
    "lat": "16.380015",
    "lng": "80.617200"
  },
  {
    "stationName": "chamarajapuram",
    "stationCode": "CMJ",
    "lat": "12.298347",
    "lng": "76.637789"
  },
  {
    "stationName": "chamagram",
    "stationCode": "CMX",
    "lat": "24.822263",
    "lng": "87.963567"
  },
  {
    "stationName": "chinchli",
    "stationCode": "CNC",
    "lat": "16.565907",
    "lng": "74.853412"
  },
  {
    "stationName": "chianki",
    "stationCode": "CNF",
    "lat": "23.980606",
    "lng": "84.108617"
  },
  {
    "stationName": "chainpur",
    "stationCode": "CNPR",
    "lat": "23.729962",
    "lng": "85.583224"
  },
  {
    "stationName": "chitrod",
    "stationCode": "COE",
    "lat": "23.436002",
    "lng": "70.665336"
  },
  {
    "stationName": "chakarlapalli",
    "stationCode": "CPL",
    "lat": "13.997641",
    "lng": "77.582935"
  },
  {
    "stationName": "chandsiau",
    "stationCode": "CPS",
    "lat": "29.132764",
    "lng": "78.276597"
  },
  {
    "stationName": "choral",
    "stationCode": "CRL",
    "lat": "22.450062",
    "lng": "75.945286"
  },
  {
    "stationName": "charaud",
    "stationCode": "CRW",
    "lat": "29.022101",
    "lng": "75.652342"
  },
  {
    "stationName": "channasandra",
    "stationCode": "CSDR",
    "lat": "13.011687",
    "lng": "77.663317"
  },
  {
    "stationName": "chittapur",
    "stationCode": "CT",
    "lat": "17.119690",
    "lng": "77.090482"
  },
  {
    "stationName": "chikalthan",
    "stationCode": "CTH",
    "lat": "19.872764",
    "lng": "75.537994"
  },
  {
    "stationName": "chattriput",
    "stationCode": "CTS",
    "lat": "18.923358",
    "lng": "82.590340"
  },
  {
    "stationName": "chagallu",
    "stationCode": "CU",
    "lat": "16.964696",
    "lng": "81.690423"
  },
  {
    "stationName": "chaura",
    "stationCode": "CUX",
    "lat": "24.951540",
    "lng": "86.267715"
  },
  {
    "stationName": "chorvad road",
    "stationCode": "CVR",
    "lat": "21.055166",
    "lng": "70.290395"
  },
  {
    "stationName": "cheriyanad",
    "stationCode": "CYN",
    "lat": "9.273462",
    "lng": "76.585025"
  },
  {
    "stationName": "canacona",
    "stationCode": "CNO",
    "lat": "15.007168",
    "lng": "74.039295"
  },
  {
    "stationName": "chalisgaon",
    "stationCode": "CSN",
    "lat": "20.463674",
    "lng": "74.998906"
  },
  {
    "stationName": "chandigarh",
    "stationCode": "CDG",
    "lat": "30.701856",
    "lng": "76.821899"
  },
  {
    "stationName": "chaparmukh",
    "stationCode": "CPK",
    "lat": "26.202908",
    "lng": "92.512210"
  },
  {
    "stationName": "chengannur",
    "stationCode": "CNGR",
    "lat": "9.319403",
    "lng": "76.608189"
  },
  {
    "stationName": "chidambaram",
    "stationCode": "CDM",
    "lat": "11.391505",
    "lng": "79.703361"
  },
  {
    "stationName": "chitrakootdham karvi",
    "stationCode": "CKTD",
    "lat": "25.217422",
    "lng": "80.922492"
  },